{
	"Airport": [
		{
			"_IATACode": "AAA",
			"_Country": "PF",
			"_State": "",
			"_Name": "Anaa Airport",
			"_Latitude": "-17.352",
			"_Longitude": "-145.509"
		},
		{
			"_IATACode": "AAD",
			"_Country": "SO",
			"_State": "",
			"_Name": "Adado Airport",
			"_Latitude": "6.096",
			"_Longitude": "46.638"
		},
		{
			"_IATACode": "AAE",
			"_Country": "DZ",
			"_State": "",
			"_Name": "Rabah Bitat Airport",
			"_Latitude": "36.822",
			"_Longitude": "7.809"
		},
		{
			"_IATACode": "AAK",
			"_Country": "KI",
			"_State": "",
			"_Name": "Aranuka Airport",
			"_Latitude": "0.167",
			"_Longitude": "173.583"
		},
		{
			"_IATACode": "AAL",
			"_Country": "DK",
			"_State": "",
			"_Name": "Aalborg Airport",
			"_Latitude": "57.097",
			"_Longitude": "9.856"
		},
		{
			"_IATACode": "AAN",
			"_Country": "AE",
			"_State": "",
			"_Name": "Al Ain International Airport",
			"_Latitude": "24.255",
			"_Longitude": "55.619"
		},
		{
			"_IATACode": "AAP",
			"_Country": "ID",
			"_State": "",
			"_Name": "Aji Pangeran Tumenggung Airport",
			"_Latitude": "-0.372",
			"_Longitude": "117.257"
		},
		{
			"_IATACode": "AAQ",
			"_Country": "RU",
			"_State": "",
			"_Name": "Vityazevo Airport",
			"_Latitude": "45.001",
			"_Longitude": "37.343"
		},
		{
			"_IATACode": "AAR",
			"_Country": "DK",
			"_State": "",
			"_Name": "Aarhus Airport",
			"_Latitude": "56.3",
			"_Longitude": "10.619"
		},
		{
			"_IATACode": "AAT",
			"_Country": "CN",
			"_State": "",
			"_Name": "Altay Airport",
			"_Latitude": "47.838",
			"_Longitude": "88.125"
		},
		{
			"_IATACode": "AAX",
			"_Country": "BR",
			"_State": "MG",
			"_Name": "Araxa Airport",
			"_Latitude": "-19.568",
			"_Longitude": "-46.929"
		},
		{
			"_IATACode": "AAY",
			"_Country": "YE",
			"_State": "",
			"_Name": "Al Ghaydah Airport",
			"_Latitude": "16.192",
			"_Longitude": "52.175"
		},
		{
			"_IATACode": "AAZ",
			"_Country": "GT",
			"_State": "",
			"_Name": "Quetzaltenango Airport",
			"_Latitude": "14.866",
			"_Longitude": "-91.502"
		},
		{
			"_IATACode": "ABA",
			"_Country": "RU",
			"_State": "",
			"_Name": "Abakan Airport",
			"_Latitude": "53.751",
			"_Longitude": "91.4"
		},
		{
			"_IATACode": "ABB",
			"_Country": "NG",
			"_State": "",
			"_Name": "Asaba International Airport",
			"_Latitude": "6.203",
			"_Longitude": "6.667"
		},
		{
			"_IATACode": "ABD",
			"_Country": "IR",
			"_State": "",
			"_Name": "Abadan Airport",
			"_Latitude": "30.367",
			"_Longitude": "48.233"
		},
		{
			"_IATACode": "ABE",
			"_Country": "US",
			"_State": "PA",
			"_Name": "Lehigh Valley International Airport",
			"_Latitude": "40.655",
			"_Longitude": "-75.438"
		},
		{
			"_IATACode": "ABF",
			"_Country": "KI",
			"_State": "",
			"_Name": "Abaiang Airport",
			"_Latitude": "1.671",
			"_Longitude": "173.304"
		},
		{
			"_IATACode": "ABI",
			"_Country": "US",
			"_State": "TX",
			"_Name": "Abilene Regional Airport",
			"_Latitude": "32.409",
			"_Longitude": "-99.68"
		},
		{
			"_IATACode": "ABJ",
			"_Country": "CI",
			"_State": "",
			"_Name": "Felix Houphouet-Boigny Airport",
			"_Latitude": "5.261",
			"_Longitude": "-3.926"
		},
		{
			"_IATACode": "ABL",
			"_Country": "US",
			"_State": "AK",
			"_Name": "Ambler Airport",
			"_Latitude": "67.088",
			"_Longitude": "-157.846"
		},
		{
			"_IATACode": "ABM",
			"_Country": "AU",
			"_State": "QL",
			"_Name": "Northern Peninsula Airport",
			"_Latitude": "-10.943",
			"_Longitude": "142.45"
		},
		{
			"_IATACode": "ABQ",
			"_Country": "US",
			"_State": "NM",
			"_Name": "International Sunport Airport",
			"_Latitude": "35.042",
			"_Longitude": "-106.605"
		},
		{
			"_IATACode": "ABR",
			"_Country": "US",
			"_State": "SD",
			"_Name": "Aberdeen Regional Airport",
			"_Latitude": "45.453",
			"_Longitude": "-98.426"
		},
		{
			"_IATACode": "ABS",
			"_Country": "EG",
			"_State": "",
			"_Name": "Abu Simbel Airport",
			"_Latitude": "22.372",
			"_Longitude": "31.615"
		},
		{
			"_IATACode": "ABT",
			"_Country": "SA",
			"_State": "",
			"_Name": "Al-Aqiq Airport",
			"_Latitude": "20.296",
			"_Longitude": "41.634"
		},
		{
			"_IATACode": "ABU",
			"_Country": "ID",
			"_State": "",
			"_Name": "Haliwen Airport",
			"_Latitude": "-9.133",
			"_Longitude": "124.883"
		},
		{
			"_IATACode": "ABV",
			"_Country": "NG",
			"_State": "",
			"_Name": "Nnamdi Azikiwe International Airport",
			"_Latitude": "9.0",
			"_Longitude": "7.267"
		},
		{
			"_IATACode": "ABX",
			"_Country": "AU",
			"_State": "NS",
			"_Name": "Albury Airport",
			"_Latitude": "-36.068",
			"_Longitude": "146.977"
		},
		{
			"_IATACode": "ABY",
			"_Country": "US",
			"_State": "GA",
			"_Name": "Southwest Georgia Regional Airport",
			"_Latitude": "31.532",
			"_Longitude": "-84.196"
		},
		{
			"_IATACode": "ABZ",
			"_Country": "GB",
			"_State": "",
			"_Name": "Dyce Airport",
			"_Latitude": "57.203",
			"_Longitude": "-2.198"
		},
		{
			"_IATACode": "ACA",
			"_Country": "MX",
			"_State": "",
			"_Name": "Juan N. Alvarez International Airport",
			"_Latitude": "16.757",
			"_Longitude": "-99.754"
		},
		{
			"_IATACode": "ACC",
			"_Country": "GH",
			"_State": "",
			"_Name": "Kotoka International Airport",
			"_Latitude": "5.595",
			"_Longitude": "-0.171"
		},
		{
			"_IATACode": "ACE",
			"_Country": "ES",
			"_State": "",
			"_Name": "Lanzarote Airport",
			"_Latitude": "28.938",
			"_Longitude": "-13.604"
		},
		{
			"_IATACode": "ACF",
			"_Country": "CN",
			"_State": "",
			"_Name": "Alaer Talimu Airport",
			"_Latitude": "40.436",
			"_Longitude": "81.264"
		},
		{
			"_IATACode": "ACH",
			"_Country": "CH",
			"_State": "",
			"_Name": "Saint Gallen-Altenrhein Airport",
			"_Latitude": "47.485",
			"_Longitude": "9.561"
		},
		{
			"_IATACode": "ACI",
			"_Country": "GG",
			"_State": "",
			"_Name": "Alderney Airport",
			"_Latitude": "49.707",
			"_Longitude": "-2.215"
		},
		{
			"_IATACode": "ACK",
			"_Country": "US",
			"_State": "MA",
			"_Name": "Nantucket Memorial Airport",
			"_Latitude": "41.257",
			"_Longitude": "-70.06"
		},
		{
			"_IATACode": "ACP",
			"_Country": "IR",
			"_State": "",
			"_Name": "Sahand Airport",
			"_Latitude": "37.354",
			"_Longitude": "46.15"
		},
		{
			"_IATACode": "ACT",
			"_Country": "US",
			"_State": "TX",
			"_Name": "Waco Regional Airport",
			"_Latitude": "31.608",
			"_Longitude": "-97.23"
		},
		{
			"_IATACode": "ACV",
			"_Country": "US",
			"_State": "CA",
			"_Name": "Arcata Airport",
			"_Latitude": "40.979",
			"_Longitude": "-124.108"
		},
		{
			"_IATACode": "ACX",
			"_Country": "CN",
			"_State": "",
			"_Name": "Xingyi Airport",
			"_Latitude": "25.086",
			"_Longitude": "104.959"
		},
		{
			"_IATACode": "ACY",
			"_Country": "US",
			"_State": "NJ",
			"_Name": "Atlantic City International Airport",
			"_Latitude": "39.45",
			"_Longitude": "-74.583"
		},
		{
			"_IATACode": "ACZ",
			"_Country": "IR",
			"_State": "",
			"_Name": "Zabol Airport",
			"_Latitude": "31.086",
			"_Longitude": "61.535"
		},
		{
			"_IATACode": "ADA",
			"_Country": "TR",
			"_State": "",
			"_Name": "Sakirpasa Airport",
			"_Latitude": "36.984",
			"_Longitude": "35.281"
		},
		{
			"_IATACode": "ADB",
			"_Country": "TR",
			"_State": "",
			"_Name": "Adnan Menderes Airport",
			"_Latitude": "38.283",
			"_Longitude": "27.15"
		},
		{
			"_IATACode": "ADD",
			"_Country": "ET",
			"_State": "",
			"_Name": "Bole International Airport",
			"_Latitude": "8.978",
			"_Longitude": "38.799"
		},
		{
			"_IATACode": "ADE",
			"_Country": "YE",
			"_State": "",
			"_Name": "Aden International Airport",
			"_Latitude": "12.828",
			"_Longitude": "45.031"
		},
		{
			"_IATACode": "ADF",
			"_Country": "TR",
			"_State": "",
			"_Name": "Adiyaman Airport",
			"_Latitude": "37.75",
			"_Longitude": "38.267"
		},
		{
			"_IATACode": "ADJ",
			"_Country": "JO",
			"_State": "",
			"_Name": "Marka International Airport",
			"_Latitude": "31.95",
			"_Longitude": "35.983"
		},
		{
			"_IATACode": "ADK",
			"_Country": "US",
			"_State": "AK",
			"_Name": "Adak Island Airport",
			"_Latitude": "51.878",
			"_Longitude": "-176.646"
		},
		{
			"_IATACode": "ADL",
			"_Country": "AU",
			"_State": "SA",
			"_Name": "Adelaide International Airport",
			"_Latitude": "-34.948",
			"_Longitude": "138.535"
		},
		{
			"_IATACode": "ADQ",
			"_Country": "US",
			"_State": "AK",
			"_Name": "Kodiak Airport",
			"_Latitude": "57.754",
			"_Longitude": "-152.483"
		},
		{
			"_IATACode": "ADU",
			"_Country": "IR",
			"_State": "",
			"_Name": "Ardabil Airport",
			"_Latitude": "38.324",
			"_Longitude": "48.422"
		},
		{
			"_IATACode": "ADZ",
			"_Country": "CO",
			"_State": "",
			"_Name": "Gustavo Rojas Pinilla International Air",
			"_Latitude": "12.583",
			"_Longitude": "-81.7"
		},
		{
			"_IATACode": "AEA",
			"_Country": "KI",
			"_State": "",
			"_Name": "Abemama Airport",
			"_Latitude": "0.483",
			"_Longitude": "173.85"
		},
		{
			"_IATACode": "AEB",
			"_Country": "CN",
			"_State": "",
			"_Name": "Youjiang Airport",
			"_Latitude": "23.719",
			"_Longitude": "106.959"
		},
		{
			"_IATACode": "AEM",
			"_Country": "RU",
			"_State": "",
			"_Name": "Amgu Airport",
			"_Latitude": "45.842",
			"_Longitude": "137.678"
		},
		{
			"_IATACode": "AEP",
			"_Country": "AR",
			"_State": "BA",
			"_Name": "Jorge Newbery Airport",
			"_Latitude": "-34.559",
			"_Longitude": "-58.416"
		},
		{
			"_IATACode": "AER",
			"_Country": "RU",
			"_State": "",
			"_Name": "Sochi International",
			"_Latitude": "43.444",
			"_Longitude": "39.947"
		},
		{
			"_IATACode": "AES",
			"_Country": "NO",
			"_State": "",
			"_Name": "Vigra Airport",
			"_Latitude": "62.56",
			"_Longitude": "6.11"
		},
		{
			"_IATACode": "AET",
			"_Country": "US",
			"_State": "AK",
			"_Name": "Allakaket Airport",
			"_Latitude": "66.562",
			"_Longitude": "-152.658"
		},
		{
			"_IATACode": "AEU",
			"_Country": "IR",
			"_State": "",
			"_Name": "Abu Musa Island Airport",
			"_Latitude": "25.887",
			"_Longitude": "55.042"
		},
		{
			"_IATACode": "AEX",
			"_Country": "US",
			"_State": "LA",
			"_Name": "Alexandria International Airport",
			"_Latitude": "31.328",
			"_Longitude": "-92.549"
		},
		{
			"_IATACode": "AEY",
			"_Country": "IS",
			"_State": "",
			"_Name": "Akureyri Airport",
			"_Latitude": "65.659",
			"_Longitude": "-18.072"
		},
		{
			"_IATACode": "AFA",
			"_Country": "AR",
			"_State": "MD",
			"_Name": "San Rafael Airport",
			"_Latitude": "-34.589",
			"_Longitude": "-68.401"
		},
		{
			"_IATACode": "AFL",
			"_Country": "BR",
			"_State": "MT",
			"_Name": "Oswaldo Marques Dias Airport",
			"_Latitude": "-9.866",
			"_Longitude": "-56.106"
		},
		{
			"_IATACode": "AGA",
			"_Country": "MA",
			"_State": "",
			"_Name": "Al Massira Airport",
			"_Latitude": "30.331",
			"_Longitude": "-9.409"
		},
		{
			"_IATACode": "AGH",
			"_Country": "SE",
			"_State": "",
			"_Name": "Angelholm/Helsingborg Airport",
			"_Latitude": "56.293",
			"_Longitude": "12.863"
		},
		{
			"_IATACode": "AGM",
			"_Country": "GL",
			"_State": "",
			"_Name": "Ammassalik Heliport",
			"_Latitude": "65.612",
			"_Longitude": "-37.618"
		},
		{
			"_IATACode": "AGN",
			"_Country": "US",
			"_State": "AK",
			"_Name": "Angoon Sea Plane Base",
			"_Latitude": "57.504",
			"_Longitude": "-134.583"
		},
		{
			"_IATACode": "AGP",
			"_Country": "ES",
			"_State": "",
			"_Name": "Malaga Airport",
			"_Latitude": "36.672",
			"_Longitude": "-4.498"
		},
		{
			"_IATACode": "AGR",
			"_Country": "IN",
			"_State": "UP",
			"_Name": "Agra Airport",
			"_Latitude": "27.158",
			"_Longitude": "77.963"
		},
		{
			"_IATACode": "AGS",
			"_Country": "US",
			"_State": "GA",
			"_Name": "Augusta Regional (Bush Field) Airport",
			"_Latitude": "33.366",
			"_Longitude": "-81.967"
		},
		{
			"_IATACode": "AGT",
			"_Country": "PY",
			"_State": "",
			"_Name": "Guarani International Airport",
			"_Latitude": "-25.5",
			"_Longitude": "-54.833"
		},
		{
			"_IATACode": "AGU",
			"_Country": "MX",
			"_State": "",
			"_Name": "Jesus Teran Peredo International Airpor",
			"_Latitude": "21.706",
			"_Longitude": "-102.318"
		},
		{
			"_IATACode": "AGV",
			"_Country": "VE",
			"_State": "",
			"_Name": "Oswaldo Guevara Mujica Airport",
			"_Latitude": "9.552",
			"_Longitude": "-69.233"
		},
		{
			"_IATACode": "AGX",
			"_Country": "IN",
			"_State": "LD",
			"_Name": "Agatti Island Airport",
			"_Latitude": "10.824",
			"_Longitude": "72.176"
		},
		{
			"_IATACode": "AGY",
			"_Country": "DE",
			"_State": "",
			"_Name": "Augsburg Hbf Railway Station",
			"_Latitude": "48.366",
			"_Longitude": "10.886"
		},
		{
			"_IATACode": "AHB",
			"_Country": "SA",
			"_State": "",
			"_Name": "Abha Airport",
			"_Latitude": "18.233",
			"_Longitude": "42.65"
		},
		{
			"_IATACode": "AHE",
			"_Country": "PF",
			"_State": "",
			"_Name": "Ahe Airport",
			"_Latitude": "-14.428",
			"_Longitude": "-146.257"
		},
		{
			"_IATACode": "AHJ",
			"_Country": "CN",
			"_State": "",
			"_Name": "Aba/Hongyuan Airport",
			"_Latitude": "32.531",
			"_Longitude": "102.352"
		},
		{
			"_IATACode": "AHO",
			"_Country": "IT",
			"_State": "",
			"_Name": "Fertilia Airport",
			"_Latitude": "40.631",
			"_Longitude": "8.289"
		},
		{
			"_IATACode": "AHU",
			"_Country": "MA",
			"_State": "",
			"_Name": "Cherif El Idrissi Airport",
			"_Latitude": "35.18",
			"_Longitude": "-3.837"
		},
		{
			"_IATACode": "AIA",
			"_Country": "US",
			"_State": "NE",
			"_Name": "Alliance Municipal Airport",
			"_Latitude": "42.052",
			"_Longitude": "-102.807"
		},
		{
			"_IATACode": "AIN",
			"_Country": "US",
			"_State": "AK",
			"_Name": "Wainwright Airport",
			"_Latitude": "70.633",
			"_Longitude": "-160.033"
		},
		{
			"_IATACode": "AIR",
			"_Country": "BR",
			"_State": "MT",
			"_Name": "Aripuana Airport",
			"_Latitude": "-10.25",
			"_Longitude": "-59.383"
		},
		{
			"_IATACode": "AIS",
			"_Country": "KI",
			"_State": "",
			"_Name": "Arorae Airport",
			"_Latitude": "-2.65",
			"_Longitude": "176.833"
		},
		{
			"_IATACode": "AIT",
			"_Country": "CK",
			"_State": "",
			"_Name": "Aitutaki Island Airport",
			"_Latitude": "-18.85",
			"_Longitude": "-159.75"
		},
		{
			"_IATACode": "AJA",
			"_Country": "FR",
			"_State": "",
			"_Name": "Napoleon Bonaparte Airport",
			"_Latitude": "41.924",
			"_Longitude": "8.803"
		},
		{
			"_IATACode": "AJF",
			"_Country": "SA",
			"_State": "",
			"_Name": "Jouf Airport",
			"_Latitude": "29.785",
			"_Longitude": "40.1"
		},
		{
			"_IATACode": "AJI",
			"_Country": "TR",
			"_State": "",
			"_Name": "Agri Airport",
			"_Latitude": "39.654",
			"_Longitude": "43.027"
		},
		{
			"_IATACode": "AJL",
			"_Country": "IN",
			"_State": "MZ",
			"_Name": "Lengpui Airport",
			"_Latitude": "23.839",
			"_Longitude": "92.625"
		},
		{
			"_IATACode": "AJN",
			"_Country": "KM",
			"_State": "",
			"_Name": "Ouani Airport",
			"_Latitude": "-12.126",
			"_Longitude": "44.43"
		},
		{
			"_IATACode": "AJR",
			"_Country": "SE",
			"_State": "",
			"_Name": "Arvidsjaur Airport",
			"_Latitude": "65.591",
			"_Longitude": "19.286"
		},
		{
			"_IATACode": "AJU",
			"_Country": "BR",
			"_State": "SE",
			"_Name": "Santa Maria Airport",
			"_Latitude": "-10.983",
			"_Longitude": "-37.05"
		},
		{
			"_IATACode": "AJY",
			"_Country": "NE",
			"_State": "",
			"_Name": "Manu Dayak International Airport",
			"_Latitude": "16.964",
			"_Longitude": "7.993"
		},
		{
			"_IATACode": "AKA",
			"_Country": "CN",
			"_State": "",
			"_Name": "Fuqiang Airport",
			"_Latitude": "32.667",
			"_Longitude": "109.2"
		},
		{
			"_IATACode": "AKB",
			"_Country": "US",
			"_State": "AK",
			"_Name": "Atka Airport",
			"_Latitude": "52.217",
			"_Longitude": "-174.201"
		},
		{
			"_IATACode": "AKJ",
			"_Country": "JP",
			"_State": "",
			"_Name": "Asahikawa Airport",
			"_Latitude": "43.667",
			"_Longitude": "142.45"
		},
		{
			"_IATACode": "AKK",
			"_Country": "US",
			"_State": "AK",
			"_Name": "Akhiok Airport",
			"_Latitude": "56.944",
			"_Longitude": "-154.167"
		},
		{
			"_IATACode": "AKL",
			"_Country": "NZ",
			"_State": "",
			"_Name": "Auckland International Airport",
			"_Latitude": "-37.008",
			"_Longitude": "174.792"
		},
		{
			"_IATACode": "AKN",
			"_Country": "US",
			"_State": "AK",
			"_Name": "King Salmon Airport",
			"_Latitude": "58.669",
			"_Longitude": "-156.636"
		},
		{
			"_IATACode": "AKP",
			"_Country": "US",
			"_State": "AK",
			"_Name": "Anaktuvuk Pass Airport",
			"_Latitude": "68.134",
			"_Longitude": "-151.743"
		},
		{
			"_IATACode": "AKR",
			"_Country": "NG",
			"_State": "",
			"_Name": "Akure Airport",
			"_Latitude": "7.25",
			"_Longitude": "5.083"
		},
		{
			"_IATACode": "AKS",
			"_Country": "SB",
			"_State": "",
			"_Name": "Gwaunaru'u Airport",
			"_Latitude": "-8.698",
			"_Longitude": "160.681"
		},
		{
			"_IATACode": "AKU",
			"_Country": "CN",
			"_State": "",
			"_Name": "Aksu Airport",
			"_Latitude": "41.263",
			"_Longitude": "80.292"
		},
		{
			"_IATACode": "AKV",
			"_Country": "CA",
			"_State": "QC",
			"_Name": "Akulivik Airport",
			"_Latitude": "60.818",
			"_Longitude": "-78.148"
		},
		{
			"_IATACode": "AKX",
			"_Country": "KZ",
			"_State": "",
			"_Name": "Aktobe Airport",
			"_Latitude": "50.25",
			"_Longitude": "57.217"
		},
		{
			"_IATACode": "AKY",
			"_Country": "MM",
			"_State": "",
			"_Name": "Sittwe Airport",
			"_Latitude": "20.13",
			"_Longitude": "92.88"
		},
		{
			"_IATACode": "ALA",
			"_Country": "KZ",
			"_State": "",
			"_Name": "Almaty International Airport",
			"_Latitude": "43.356",
			"_Longitude": "77.044"
		},
		{
			"_IATACode": "ALB",
			"_Country": "US",
			"_State": "NY",
			"_Name": "Albany International Airport",
			"_Latitude": "42.749",
			"_Longitude": "-73.802"
		},
		{
			"_IATACode": "ALC",
			"_Country": "ES",
			"_State": "",
			"_Name": "Alicante Airport",
			"_Latitude": "38.283",
			"_Longitude": "-0.567"
		},
		{
			"_IATACode": "ALF",
			"_Country": "NO",
			"_State": "",
			"_Name": "Alta Airport",
			"_Latitude": "69.976",
			"_Longitude": "23.381"
		},
		{
			"_IATACode": "ALG",
			"_Country": "DZ",
			"_State": "",
			"_Name": "Houari Boumediene Airport",
			"_Latitude": "36.693",
			"_Longitude": "3.217"
		},
		{
			"_IATACode": "ALH",
			"_Country": "AU",
			"_State": "WA",
			"_Name": "Albany Airport",
			"_Latitude": "-34.945",
			"_Longitude": "117.806"
		},
		{
			"_IATACode": "ALO",
			"_Country": "US",
			"_State": "IA",
			"_Name": "Waterloo Regional Airport",
			"_Latitude": "42.557",
			"_Longitude": "-92.4"
		},
		{
			"_IATACode": "ALP",
			"_Country": "SY",
			"_State": "",
			"_Name": "Aleppo International Airport",
			"_Latitude": "36.181",
			"_Longitude": "37.227"
		},
		{
			"_IATACode": "ALQ",
			"_Country": "BR",
			"_State": "RS",
			"_Name": "Guadencio Machado Ramos Airport",
			"_Latitude": "-29.8",
			"_Longitude": "-55.763"
		},
		{
			"_IATACode": "ALS",
			"_Country": "US",
			"_State": "CO",
			"_Name": "San Luis Valley Regional Airport",
			"_Latitude": "37.437",
			"_Longitude": "-105.867"
		},
		{
			"_IATACode": "ALW",
			"_Country": "US",
			"_State": "WA",
			"_Name": "Walla Walla Regional Airport",
			"_Latitude": "46.095",
			"_Longitude": "-118.291"
		},
		{
			"_IATACode": "ALZ",
			"_Country": "US",
			"_State": "AK",
			"_Name": "Alitak Sea Plane Base",
			"_Latitude": "56.896",
			"_Longitude": "-154.246"
		},
		{
			"_IATACode": "AMA",
			"_Country": "US",
			"_State": "TX",
			"_Name": "Rick Husband International Airport",
			"_Latitude": "35.227",
			"_Longitude": "-101.722"
		},
		{
			"_IATACode": "AMD",
			"_Country": "IN",
			"_State": "GJ",
			"_Name": "Sardar VallabhBhai Patel Airport",
			"_Latitude": "23.066",
			"_Longitude": "72.624"
		},
		{
			"_IATACode": "AMH",
			"_Country": "ET",
			"_State": "",
			"_Name": "Arba Minch Airport",
			"_Latitude": "6.036",
			"_Longitude": "37.577"
		},
		{
			"_IATACode": "AMM",
			"_Country": "JO",
			"_State": "",
			"_Name": "Queen Alia International Airport",
			"_Latitude": "31.723",
			"_Longitude": "35.993"
		},
		{
			"_IATACode": "AMQ",
			"_Country": "ID",
			"_State": "",
			"_Name": "Pattimura Airport",
			"_Latitude": "-3.71",
			"_Longitude": "128.089"
		},
		{
			"_IATACode": "AMS",
			"_Country": "NL",
			"_State": "",
			"_Name": "Schiphol Airport",
			"_Latitude": "52.309",
			"_Longitude": "4.764"
		},
		{
			"_IATACode": "ANA",
			"_Country": "KE",
			"_State": "",
			"_Name": "Angama Airport",
			"_Latitude": "-1.272",
			"_Longitude": "34.955"
		},
		{
			"_IATACode": "ANC",
			"_Country": "US",
			"_State": "AK",
			"_Name": "Ted Stevens International Airport",
			"_Latitude": "61.169",
			"_Longitude": "-149.985"
		},
		{
			"_IATACode": "ANF",
			"_Country": "CL",
			"_State": "",
			"_Name": "Cerro Moreno Airport",
			"_Latitude": "-23.444",
			"_Longitude": "-70.445"
		},
		{
			"_IATACode": "ANI",
			"_Country": "US",
			"_State": "AK",
			"_Name": "Aniak Airport",
			"_Latitude": "61.567",
			"_Longitude": "-159.533"
		},
		{
			"_IATACode": "ANR",
			"_Country": "BE",
			"_State": "",
			"_Name": "Antwerp International Airport",
			"_Latitude": "51.19",
			"_Longitude": "4.46"
		},
		{
			"_IATACode": "ANU",
			"_Country": "AG",
			"_State": "",
			"_Name": "V.C. Bird International Airport",
			"_Latitude": "17.108",
			"_Longitude": "-61.764"
		},
		{
			"_IATACode": "ANX",
			"_Country": "NO",
			"_State": "",
			"_Name": "Andoya Airport",
			"_Latitude": "69.293",
			"_Longitude": "16.142"
		},
		{
			"_IATACode": "AOE",
			"_Country": "TR",
			"_State": "",
			"_Name": "Anadolu Airport",
			"_Latitude": "39.812",
			"_Longitude": "30.528"
		},
		{
			"_IATACode": "AOG",
			"_Country": "CN",
			"_State": "",
			"_Name": "Teng'ao Airport",
			"_Latitude": "41.167",
			"_Longitude": "123.033"
		},
		{
			"_IATACode": "AOI",
			"_Country": "IT",
			"_State": "",
			"_Name": "Falconara Airport",
			"_Latitude": "43.617",
			"_Longitude": "13.36"
		},
		{
			"_IATACode": "AOJ",
			"_Country": "JP",
			"_State": "",
			"_Name": "Aomori Airport",
			"_Latitude": "40.733",
			"_Longitude": "140.7"
		},
		{
			"_IATACode": "AOK",
			"_Country": "GR",
			"_State": "",
			"_Name": "Karpathos Airport",
			"_Latitude": "35.421",
			"_Longitude": "27.146"
		},
		{
			"_IATACode": "AOO",
			"_Country": "US",
			"_State": "PA",
			"_Name": "Blair County Airport",
			"_Latitude": "40.296",
			"_Longitude": "-78.32"
		},
		{
			"_IATACode": "AOQ",
			"_Country": "GL",
			"_State": "",
			"_Name": "Aappilattoq-Upernavik Heliport",
			"_Latitude": "72.783",
			"_Longitude": "-55.5"
		},
		{
			"_IATACode": "AOR",
			"_Country": "MY",
			"_State": "",
			"_Name": "Sultan Abdul Halim Airport",
			"_Latitude": "6.192",
			"_Longitude": "100.395"
		},
		{
			"_IATACode": "AOS",
			"_Country": "US",
			"_State": "AK",
			"_Name": "Amook Bay Sea Plane Base",
			"_Latitude": "57.467",
			"_Longitude": "-153.833"
		},
		{
			"_IATACode": "APK",
			"_Country": "PF",
			"_State": "",
			"_Name": "Apataki Airport",
			"_Latitude": "-15.417",
			"_Longitude": "-146.083"
		},
		{
			"_IATACode": "APL",
			"_Country": "MZ",
			"_State": "",
			"_Name": "Nampula Airport",
			"_Latitude": "-15.102",
			"_Longitude": "39.287"
		},
		{
			"_IATACode": "APN",
			"_Country": "US",
			"_State": "MI",
			"_Name": "Alpena County Regional Airport",
			"_Latitude": "45.082",
			"_Longitude": "-83.556"
		},
		{
			"_IATACode": "APO",
			"_Country": "CO",
			"_State": "",
			"_Name": "Carepa-Antonio Roldan Betancourt Airpor",
			"_Latitude": "7.812",
			"_Longitude": "-76.716"
		},
		{
			"_IATACode": "APW",
			"_Country": "WS",
			"_State": "",
			"_Name": "Faleolo International Airport",
			"_Latitude": "-13.833",
			"_Longitude": "-172.0"
		},
		{
			"_IATACode": "AQG",
			"_Country": "CN",
			"_State": "",
			"_Name": "Tianzhushan Airport",
			"_Latitude": "30.517",
			"_Longitude": "117.033"
		},
		{
			"_IATACode": "AQI",
			"_Country": "SA",
			"_State": "",
			"_Name": "Hafar al Batin",
			"_Latitude": "28.328",
			"_Longitude": "46.131"
		},
		{
			"_IATACode": "AQJ",
			"_Country": "JO",
			"_State": "",
			"_Name": "King Hussein International Airport",
			"_Latitude": "29.617",
			"_Longitude": "35.017"
		},
		{
			"_IATACode": "AQP",
			"_Country": "PE",
			"_State": "",
			"_Name": "Rodriguez Ballon International Airport",
			"_Latitude": "-16.338",
			"_Longitude": "-71.555"
		},
		{
			"_IATACode": "ARC",
			"_Country": "US",
			"_State": "AK",
			"_Name": "Arctic Village Airport",
			"_Latitude": "68.114",
			"_Longitude": "-145.579"
		},
		{
			"_IATACode": "ARD",
			"_Country": "ID",
			"_State": "",
			"_Name": "Mali Airport",
			"_Latitude": "-8.132",
			"_Longitude": "124.597"
		},
		{
			"_IATACode": "ARH",
			"_Country": "RU",
			"_State": "",
			"_Name": "Talagi Airport",
			"_Latitude": "64.6",
			"_Longitude": "40.717"
		},
		{
			"_IATACode": "ARI",
			"_Country": "CL",
			"_State": "",
			"_Name": "Chacalluta Airport",
			"_Latitude": "-18.35",
			"_Longitude": "-70.35"
		},
		{
			"_IATACode": "ARK",
			"_Country": "TZ",
			"_State": "",
			"_Name": "Arusha Airport",
			"_Latitude": "-3.368",
			"_Longitude": "36.625"
		},
		{
			"_IATACode": "ARM",
			"_Country": "AU",
			"_State": "NS",
			"_Name": "Armidale Airport",
			"_Latitude": "-30.528",
			"_Longitude": "151.623"
		},
		{
			"_IATACode": "ARN",
			"_Country": "SE",
			"_State": "",
			"_Name": "Arlanda Airport",
			"_Latitude": "59.662",
			"_Longitude": "17.934"
		},
		{
			"_IATACode": "ART",
			"_Country": "US",
			"_State": "NY",
			"_Name": "Watertown International Airport",
			"_Latitude": "43.991",
			"_Longitude": "-76.021"
		},
		{
			"_IATACode": "ARU",
			"_Country": "BR",
			"_State": "SP",
			"_Name": "Dario Guarita Airport",
			"_Latitude": "-21.141",
			"_Longitude": "-50.425"
		},
		{
			"_IATACode": "ARX",
			"_Country": "BR",
			"_State": "CE",
			"_Name": "Dragao do Mar Airport",
			"_Latitude": "-4.569",
			"_Longitude": "-37.805"
		},
		{
			"_IATACode": "ASB",
			"_Country": "TM",
			"_State": "",
			"_Name": "Ashgabat International Airport",
			"_Latitude": "37.982",
			"_Longitude": "58.361"
		},
		{
			"_IATACode": "ASE",
			"_Country": "US",
			"_State": "CO",
			"_Name": "Pitkin County Airport",
			"_Latitude": "39.224",
			"_Longitude": "-106.869"
		},
		{
			"_IATACode": "ASF",
			"_Country": "RU",
			"_State": "",
			"_Name": "Astrakhan Airport",
			"_Latitude": "46.286",
			"_Longitude": "48.002"
		},
		{
			"_IATACode": "ASI",
			"_Country": "SH",
			"_State": "",
			"_Name": "Ascension Island Royal Air Force Statio",
			"_Latitude": "-7.967",
			"_Longitude": "-14.4"
		},
		{
			"_IATACode": "ASJ",
			"_Country": "JP",
			"_State": "",
			"_Name": "Amami Airport",
			"_Latitude": "28.417",
			"_Longitude": "129.697"
		},
		{
			"_IATACode": "ASK",
			"_Country": "CI",
			"_State": "",
			"_Name": "Yamoussoukro Airport",
			"_Latitude": "6.817",
			"_Longitude": "-5.283"
		},
		{
			"_IATACode": "ASM",
			"_Country": "ER",
			"_State": "",
			"_Name": "Asmara International Airport",
			"_Latitude": "15.291",
			"_Longitude": "38.91"
		},
		{
			"_IATACode": "ASO",
			"_Country": "ET",
			"_State": "",
			"_Name": "Asosa Airport",
			"_Latitude": "10.047",
			"_Longitude": "34.537"
		},
		{
			"_IATACode": "ASP",
			"_Country": "AU",
			"_State": "NT",
			"_Name": "Alice Springs Airport",
			"_Latitude": "-23.803",
			"_Longitude": "133.884"
		},
		{
			"_IATACode": "ASR",
			"_Country": "TR",
			"_State": "",
			"_Name": "Erkilet Airport",
			"_Latitude": "38.704",
			"_Longitude": "35.51"
		},
		{
			"_IATACode": "ASU",
			"_Country": "PY",
			"_State": "",
			"_Name": "Silvio Pettirossi International Airport",
			"_Latitude": "-25.239",
			"_Longitude": "-57.519"
		},
		{
			"_IATACode": "ASV",
			"_Country": "KE",
			"_State": "",
			"_Name": "Amboseli Airport",
			"_Latitude": "-2.633",
			"_Longitude": "37.25"
		},
		{
			"_IATACode": "ASW",
			"_Country": "EG",
			"_State": "",
			"_Name": "Aswan International Airport",
			"_Latitude": "23.964",
			"_Longitude": "32.82"
		},
		{
			"_IATACode": "ATA",
			"_Country": "PE",
			"_State": "",
			"_Name": "German Arias Graziani Airport",
			"_Latitude": "-9.347",
			"_Longitude": "-77.598"
		},
		{
			"_IATACode": "ATD",
			"_Country": "SB",
			"_State": "",
			"_Name": "Atoifi Airport",
			"_Latitude": "-8.867",
			"_Longitude": "161.033"
		},
		{
			"_IATACode": "ATH",
			"_Country": "GR",
			"_State": "",
			"_Name": "Eleftherios Venizelos Airport",
			"_Latitude": "37.936",
			"_Longitude": "23.944"
		},
		{
			"_IATACode": "ATK",
			"_Country": "US",
			"_State": "AK",
			"_Name": "E.Burnell Sr Memorial Airport",
			"_Latitude": "70.467",
			"_Longitude": "-157.436"
		},
		{
			"_IATACode": "ATL",
			"_Country": "US",
			"_State": "GA",
			"_Name": "Hartsfield-Jackson International Airpor",
			"_Latitude": "33.637",
			"_Longitude": "-84.428"
		},
		{
			"_IATACode": "ATM",
			"_Country": "BR",
			"_State": "PA",
			"_Name": "Altamira Airport",
			"_Latitude": "-3.254",
			"_Longitude": "-52.249"
		},
		{
			"_IATACode": "ATQ",
			"_Country": "IN",
			"_State": "PB",
			"_Name": "Sri Guru Ram Dass Jee Airport",
			"_Latitude": "31.71",
			"_Longitude": "74.797"
		},
		{
			"_IATACode": "ATT",
			"_Country": "US",
			"_State": "AK",
			"_Name": "Atmautluak Airport",
			"_Latitude": "60.867",
			"_Longitude": "-162.268"
		},
		{
			"_IATACode": "ATW",
			"_Country": "US",
			"_State": "WI",
			"_Name": "Appleton International Airport",
			"_Latitude": "44.259",
			"_Longitude": "-88.521"
		},
		{
			"_IATACode": "ATY",
			"_Country": "US",
			"_State": "SD",
			"_Name": "Watertown Regional Airport",
			"_Latitude": "44.909",
			"_Longitude": "-97.154"
		},
		{
			"_IATACode": "ATZ",
			"_Country": "EG",
			"_State": "",
			"_Name": "Asyut Airport",
			"_Latitude": "27.046",
			"_Longitude": "31.012"
		},
		{
			"_IATACode": "AUA",
			"_Country": "AW",
			"_State": "",
			"_Name": "Reina Beatrix Airport",
			"_Latitude": "12.502",
			"_Longitude": "-70.014"
		},
		{
			"_IATACode": "AUB",
			"_Country": "DE",
			"_State": "",
			"_Name": "Augsburg Bus Station",
			"_Latitude": "48.402",
			"_Longitude": "10.877"
		},
		{
			"_IATACode": "AUC",
			"_Country": "CO",
			"_State": "",
			"_Name": "Santiago Perez Quiroz Airport",
			"_Latitude": "7.072",
			"_Longitude": "-70.743"
		},
		{
			"_IATACode": "AUG",
			"_Country": "US",
			"_State": "ME",
			"_Name": "Augusta State Airport",
			"_Latitude": "44.318",
			"_Longitude": "-69.797"
		},
		{
			"_IATACode": "AUH",
			"_Country": "AE",
			"_State": "",
			"_Name": "Abu Dhabi International Airport",
			"_Latitude": "24.442",
			"_Longitude": "54.65"
		},
		{
			"_IATACode": "AUK",
			"_Country": "US",
			"_State": "AK",
			"_Name": "Alakanuk Airport",
			"_Latitude": "62.689",
			"_Longitude": "-164.611"
		},
		{
			"_IATACode": "AUQ",
			"_Country": "PF",
			"_State": "",
			"_Name": "Atuona Airport",
			"_Latitude": "-9.767",
			"_Longitude": "-139.017"
		},
		{
			"_IATACode": "AUR",
			"_Country": "FR",
			"_State": "",
			"_Name": "Aurillac Airport",
			"_Latitude": "44.898",
			"_Longitude": "2.418"
		},
		{
			"_IATACode": "AUS",
			"_Country": "US",
			"_State": "TX",
			"_Name": "Austin-Bergstrom International Airport",
			"_Latitude": "30.2",
			"_Longitude": "-97.667"
		},
		{
			"_IATACode": "AUU",
			"_Country": "AU",
			"_State": "QL",
			"_Name": "Aurukun Airport",
			"_Latitude": "-13.354",
			"_Longitude": "141.721"
		},
		{
			"_IATACode": "AUX",
			"_Country": "BR",
			"_State": "TO",
			"_Name": "Araguaina Airport",
			"_Latitude": "-7.2",
			"_Longitude": "-48.2"
		},
		{
			"_IATACode": "AUY",
			"_Country": "VU",
			"_State": "",
			"_Name": "Anatom Island Airport",
			"_Latitude": "-20.249",
			"_Longitude": "169.771"
		},
		{
			"_IATACode": "AVA",
			"_Country": "CN",
			"_State": "",
			"_Name": "Huangguoshu Airport",
			"_Latitude": "26.257",
			"_Longitude": "105.873"
		},
		{
			"_IATACode": "AVL",
			"_Country": "US",
			"_State": "NC",
			"_Name": "Asheville Regional Airport",
			"_Latitude": "35.436",
			"_Longitude": "-82.542"
		},
		{
			"_IATACode": "AVP",
			"_Country": "US",
			"_State": "PA",
			"_Name": "Wilkes-Barre/Scranton International Air",
			"_Latitude": "41.338",
			"_Longitude": "-75.723"
		},
		{
			"_IATACode": "AVV",
			"_Country": "AU",
			"_State": "VI",
			"_Name": "Avalon Airport",
			"_Latitude": "-38.026",
			"_Longitude": "144.473"
		},
		{
			"_IATACode": "AWA",
			"_Country": "ET",
			"_State": "",
			"_Name": "Awasa Airport",
			"_Latitude": "7.061",
			"_Longitude": "38.487"
		},
		{
			"_IATACode": "AWD",
			"_Country": "VU",
			"_State": "",
			"_Name": "Aniwa Island Airport",
			"_Latitude": "-19.253",
			"_Longitude": "169.599"
		},
		{
			"_IATACode": "AWZ",
			"_Country": "IR",
			"_State": "",
			"_Name": "Ahwaz Airport",
			"_Latitude": "31.338",
			"_Longitude": "48.76"
		},
		{
			"_IATACode": "AXA",
			"_Country": "AI",
			"_State": "",
			"_Name": "Clayton J. Lloyd International Airport",
			"_Latitude": "18.217",
			"_Longitude": "-63.067"
		},
		{
			"_IATACode": "AXD",
			"_Country": "GR",
			"_State": "",
			"_Name": "Dimokritos Airport",
			"_Latitude": "40.856",
			"_Longitude": "25.956"
		},
		{
			"_IATACode": "AXF",
			"_Country": "CN",
			"_State": "",
			"_Name": "Alxa Left Banner Airport",
			"_Latitude": "38.748",
			"_Longitude": "105.584"
		},
		{
			"_IATACode": "AXJ",
			"_Country": "JP",
			"_State": "",
			"_Name": "Amakusa Airport",
			"_Latitude": "32.482",
			"_Longitude": "130.159"
		},
		{
			"_IATACode": "AXM",
			"_Country": "CO",
			"_State": "",
			"_Name": "El Eden International Airport",
			"_Latitude": "4.453",
			"_Longitude": "-75.766"
		},
		{
			"_IATACode": "AXP",
			"_Country": "BS",
			"_State": "",
			"_Name": "Spring Point Airport",
			"_Latitude": "22.45",
			"_Longitude": "-73.967"
		},
		{
			"_IATACode": "AXR",
			"_Country": "PF",
			"_State": "",
			"_Name": "Arutua Airport",
			"_Latitude": "-15.246",
			"_Longitude": "-146.62"
		},
		{
			"_IATACode": "AXT",
			"_Country": "JP",
			"_State": "",
			"_Name": "Akita Airport",
			"_Latitude": "39.616",
			"_Longitude": "140.219"
		},
		{
			"_IATACode": "AYJ",
			"_Country": "IN",
			"_State": "UP",
			"_Name": "Ayodhya Airport",
			"_Latitude": "26.753",
			"_Longitude": "82.157"
		},
		{
			"_IATACode": "AYP",
			"_Country": "PE",
			"_State": "",
			"_Name": "Alfredo M. Duarte Airport",
			"_Latitude": "-13.197",
			"_Longitude": "-74.247"
		},
		{
			"_IATACode": "AYQ",
			"_Country": "AU",
			"_State": "NT",
			"_Name": "Connellan Airport",
			"_Latitude": "-25.333",
			"_Longitude": "131.05"
		},
		{
			"_IATACode": "AYT",
			"_Country": "TR",
			"_State": "",
			"_Name": "Antalya Airport",
			"_Latitude": "36.906",
			"_Longitude": "30.791"
		},
		{
			"_IATACode": "AZA",
			"_Country": "US",
			"_State": "AZ",
			"_Name": "Mesa Gateway Airport",
			"_Latitude": "33.308",
			"_Longitude": "-111.655"
		},
		{
			"_IATACode": "AZD",
			"_Country": "IR",
			"_State": "",
			"_Name": "Shahid Sadooghi",
			"_Latitude": "31.898",
			"_Longitude": "54.282"
		},
		{
			"_IATACode": "AZO",
			"_Country": "US",
			"_State": "MI",
			"_Name": "Kalamazoo/Battle Creek International Ai",
			"_Latitude": "42.236",
			"_Longitude": "-85.554"
		},
		{
			"_IATACode": "AZR",
			"_Country": "DZ",
			"_State": "",
			"_Name": "Touat Airport",
			"_Latitude": "27.839",
			"_Longitude": "-0.185"
		},
		{
			"_IATACode": "AZS",
			"_Country": "DO",
			"_State": "",
			"_Name": "El Catey International Airport",
			"_Latitude": "19.201",
			"_Longitude": "-69.433"
		},
		{
			"_IATACode": "BAG",
			"_Country": "PH",
			"_State": "",
			"_Name": "Loakan Airport",
			"_Latitude": "16.377",
			"_Longitude": "120.618"
		},
		{
			"_IATACode": "BAH",
			"_Country": "BH",
			"_State": "",
			"_Name": "Bahrain International Airport",
			"_Latitude": "26.271",
			"_Longitude": "50.634"
		},
		{
			"_IATACode": "BAL",
			"_Country": "TR",
			"_State": "",
			"_Name": "Batman Airport",
			"_Latitude": "37.917",
			"_Longitude": "41.083"
		},
		{
			"_IATACode": "BAQ",
			"_Country": "CO",
			"_State": "",
			"_Name": "Ernesto Cortissoz International Airport",
			"_Latitude": "10.896",
			"_Longitude": "-74.779"
		},
		{
			"_IATACode": "BAR",
			"_Country": "CN",
			"_State": "",
			"_Name": "Bo'ao Airport",
			"_Latitude": "19.139",
			"_Longitude": "110.454"
		},
		{
			"_IATACode": "BAS",
			"_Country": "SB",
			"_State": "",
			"_Name": "Balalae Airport",
			"_Latitude": "-6.983",
			"_Longitude": "155.883"
		},
		{
			"_IATACode": "BAU",
			"_Country": "IT",
			"_State": "",
			"_Name": "Bari Central Railway Station",
			"_Latitude": "41.118",
			"_Longitude": "16.869"
		},
		{
			"_IATACode": "BAV",
			"_Country": "CN",
			"_State": "",
			"_Name": "Erliban Airport",
			"_Latitude": "40.56",
			"_Longitude": "109.997"
		},
		{
			"_IATACode": "BAX",
			"_Country": "RU",
			"_State": "",
			"_Name": "Barnaul Airport",
			"_Latitude": "53.361",
			"_Longitude": "83.548"
		},
		{
			"_IATACode": "BAY",
			"_Country": "RO",
			"_State": "",
			"_Name": "Baia Mare Airport",
			"_Latitude": "47.65",
			"_Longitude": "23.467"
		},
		{
			"_IATACode": "BAZ",
			"_Country": "BR",
			"_State": "AM",
			"_Name": "Barcelos Airport",
			"_Latitude": "-0.981",
			"_Longitude": "-62.92"
		},
		{
			"_IATACode": "BBA",
			"_Country": "CL",
			"_State": "",
			"_Name": "Balmaceda Airport",
			"_Latitude": "-45.917",
			"_Longitude": "-71.695"
		},
		{
			"_IATACode": "BBG",
			"_Country": "KI",
			"_State": "",
			"_Name": "Butaritari Airport",
			"_Latitude": "3.167",
			"_Longitude": "172.75"
		},
		{
			"_IATACode": "BBI",
			"_Country": "IN",
			"_State": "OR",
			"_Name": "Biju Patnaik Airport",
			"_Latitude": "20.244",
			"_Longitude": "85.82"
		},
		{
			"_IATACode": "BBK",
			"_Country": "BW",
			"_State": "",
			"_Name": "Kasane Airport",
			"_Latitude": "-17.817",
			"_Longitude": "25.15"
		},
		{
			"_IATACode": "BBN",
			"_Country": "MY",
			"_State": "",
			"_Name": "Bario Airport",
			"_Latitude": "3.737",
			"_Longitude": "115.469"
		},
		{
			"_IATACode": "BBU",
			"_Country": "RO",
			"_State": "",
			"_Name": "Baneasa - Aurel Vlaicu Airport",
			"_Latitude": "44.5",
			"_Longitude": "26.1"
		},
		{
			"_IATACode": "BCD",
			"_Country": "PH",
			"_State": "",
			"_Name": "Silay International Airport",
			"_Latitude": "10.776",
			"_Longitude": "123.015"
		},
		{
			"_IATACode": "BCI",
			"_Country": "AU",
			"_State": "QL",
			"_Name": "Barcaldine Airport",
			"_Latitude": "-23.559",
			"_Longitude": "145.302"
		},
		{
			"_IATACode": "BCM",
			"_Country": "RO",
			"_State": "",
			"_Name": "Bacau Airport",
			"_Latitude": "46.522",
			"_Longitude": "26.91"
		},
		{
			"_IATACode": "BCN",
			"_Country": "ES",
			"_State": "",
			"_Name": "Barcelona Airport",
			"_Latitude": "41.297",
			"_Longitude": "2.078"
		},
		{
			"_IATACode": "BCO",
			"_Country": "ET",
			"_State": "",
			"_Name": "Bako Airport",
			"_Latitude": "5.783",
			"_Longitude": "36.55"
		},
		{
			"_IATACode": "BCT",
			"_Country": "US",
			"_State": "FL",
			"_Name": "Boca Raton Airport",
			"_Latitude": "26.35",
			"_Longitude": "-80.083"
		},
		{
			"_IATACode": "BDA",
			"_Country": "BM",
			"_State": "",
			"_Name": "L.F. Wade International Airport",
			"_Latitude": "32.364",
			"_Longitude": "-64.679"
		},
		{
			"_IATACode": "BDB",
			"_Country": "AU",
			"_State": "QL",
			"_Name": "Bundaberg Airport",
			"_Latitude": "-24.906",
			"_Longitude": "152.321"
		},
		{
			"_IATACode": "BDD",
			"_Country": "AU",
			"_State": "QL",
			"_Name": "Badu Island Airport",
			"_Latitude": "-10.15",
			"_Longitude": "142.183"
		},
		{
			"_IATACode": "BDH",
			"_Country": "IR",
			"_State": "",
			"_Name": "Bandar Lengeh Airport",
			"_Latitude": "26.532",
			"_Longitude": "54.823"
		},
		{
			"_IATACode": "BDJ",
			"_Country": "ID",
			"_State": "",
			"_Name": "Syamsudin Noor Airport",
			"_Latitude": "-3.442",
			"_Longitude": "114.763"
		},
		{
			"_IATACode": "BDL",
			"_Country": "US",
			"_State": "CT",
			"_Name": "Bradley International Airport",
			"_Latitude": "41.939",
			"_Longitude": "-72.683"
		},
		{
			"_IATACode": "BDO",
			"_Country": "ID",
			"_State": "",
			"_Name": "Husein Sastranegara Airport",
			"_Latitude": "-6.902",
			"_Longitude": "107.576"
		},
		{
			"_IATACode": "BDP",
			"_Country": "NP",
			"_State": "",
			"_Name": "Chandragadhi Airport",
			"_Latitude": "26.533",
			"_Longitude": "88.083"
		},
		{
			"_IATACode": "BDQ",
			"_Country": "IN",
			"_State": "GJ",
			"_Name": "Vadodara Airport",
			"_Latitude": "22.329",
			"_Longitude": "73.221"
		},
		{
			"_IATACode": "BDR",
			"_Country": "US",
			"_State": "CT",
			"_Name": "Igor I. Sikorsky Memorial Airport",
			"_Latitude": "41.164",
			"_Longitude": "-73.124"
		},
		{
			"_IATACode": "BDS",
			"_Country": "IT",
			"_State": "",
			"_Name": "Casale Airport",
			"_Latitude": "40.661",
			"_Longitude": "17.948"
		},
		{
			"_IATACode": "BDU",
			"_Country": "NO",
			"_State": "",
			"_Name": "Bardufoss Airport",
			"_Latitude": "69.056",
			"_Longitude": "18.54"
		},
		{
			"_IATACode": "BEB",
			"_Country": "GB",
			"_State": "",
			"_Name": "Benbecula Airport",
			"_Latitude": "57.482",
			"_Longitude": "-7.365"
		},
		{
			"_IATACode": "BEF",
			"_Country": "NI",
			"_State": "",
			"_Name": "Bluefields Airport",
			"_Latitude": "11.997",
			"_Longitude": "-83.769"
		},
		{
			"_IATACode": "BEG",
			"_Country": "RS",
			"_State": "",
			"_Name": "Nikola Tesla Airport",
			"_Latitude": "44.819",
			"_Longitude": "20.312"
		},
		{
			"_IATACode": "BEJ",
			"_Country": "ID",
			"_State": "",
			"_Name": "Kalimarau Airport",
			"_Latitude": "2.156",
			"_Longitude": "117.432"
		},
		{
			"_IATACode": "BEK",
			"_Country": "IN",
			"_State": "UP",
			"_Name": "Bareilly Airport",
			"_Latitude": "26.217",
			"_Longitude": "81.233"
		},
		{
			"_IATACode": "BEL",
			"_Country": "BR",
			"_State": "PA",
			"_Name": "Val de Cans International Airport",
			"_Latitude": "-1.379",
			"_Longitude": "-48.476"
		},
		{
			"_IATACode": "BEM",
			"_Country": "MA",
			"_State": "",
			"_Name": "Beni Mellal National Airport",
			"_Latitude": "32.4",
			"_Longitude": "-6.317"
		},
		{
			"_IATACode": "BEN",
			"_Country": "LY",
			"_State": "",
			"_Name": "Benina International Airport",
			"_Latitude": "32.1",
			"_Longitude": "20.267"
		},
		{
			"_IATACode": "BER",
			"_Country": "DE",
			"_State": "",
			"_Name": "Brandenburg Airport",
			"_Latitude": "52.367",
			"_Longitude": "13.5"
		},
		{
			"_IATACode": "BES",
			"_Country": "FR",
			"_State": "",
			"_Name": "Bretagne Airport",
			"_Latitude": "48.447",
			"_Longitude": "-4.421"
		},
		{
			"_IATACode": "BET",
			"_Country": "US",
			"_State": "AK",
			"_Name": "Bethel Airport",
			"_Latitude": "60.784",
			"_Longitude": "-161.831"
		},
		{
			"_IATACode": "BEU",
			"_Country": "AU",
			"_State": "QL",
			"_Name": "Bedourie Airport",
			"_Latitude": "-24.346",
			"_Longitude": "139.46"
		},
		{
			"_IATACode": "BEW",
			"_Country": "MZ",
			"_State": "",
			"_Name": "Beira Airport",
			"_Latitude": "-19.794",
			"_Longitude": "34.912"
		},
		{
			"_IATACode": "BEY",
			"_Country": "LB",
			"_State": "",
			"_Name": "Rafic Hariri International",
			"_Latitude": "33.821",
			"_Longitude": "35.488"
		},
		{
			"_IATACode": "BEZ",
			"_Country": "KI",
			"_State": "",
			"_Name": "Beru Airport",
			"_Latitude": "-1.333",
			"_Longitude": "176.0"
		},
		{
			"_IATACode": "BFD",
			"_Country": "US",
			"_State": "PA",
			"_Name": "Bradford Regional Airport",
			"_Latitude": "41.803",
			"_Longitude": "-78.64"
		},
		{
			"_IATACode": "BFF",
			"_Country": "US",
			"_State": "NE",
			"_Name": "Western Nebraska Regional Airport",
			"_Latitude": "41.875",
			"_Longitude": "-103.601"
		},
		{
			"_IATACode": "BFI",
			"_Country": "US",
			"_State": "WA",
			"_Name": "Boeing Field-King County International",
			"_Latitude": "47.529",
			"_Longitude": "-122.299"
		},
		{
			"_IATACode": "BFJ",
			"_Country": "CN",
			"_State": "",
			"_Name": "Bijie Airport",
			"_Latitude": "27.267",
			"_Longitude": "105.472"
		},
		{
			"_IATACode": "BFL",
			"_Country": "US",
			"_State": "CA",
			"_Name": "Meadows Field",
			"_Latitude": "35.43",
			"_Longitude": "-119.052"
		},
		{
			"_IATACode": "BFM",
			"_Country": "US",
			"_State": "AL",
			"_Name": "Mobile Downtown Airport",
			"_Latitude": "30.683",
			"_Longitude": "-88.233"
		},
		{
			"_IATACode": "BFN",
			"_Country": "ZA",
			"_State": "",
			"_Name": "Bloemfontein International Airport",
			"_Latitude": "-29.1",
			"_Longitude": "26.3"
		},
		{
			"_IATACode": "BFS",
			"_Country": "GB",
			"_State": "",
			"_Name": "Belfast International Airport",
			"_Latitude": "54.653",
			"_Longitude": "-6.225"
		},
		{
			"_IATACode": "BFV",
			"_Country": "TH",
			"_State": "",
			"_Name": "Buriram Airport",
			"_Latitude": "15.229",
			"_Longitude": "103.253"
		},
		{
			"_IATACode": "BFX",
			"_Country": "CM",
			"_State": "",
			"_Name": "Bafoussam Airport",
			"_Latitude": "5.483",
			"_Longitude": "10.4"
		},
		{
			"_IATACode": "BGA",
			"_Country": "CO",
			"_State": "",
			"_Name": "Palonegro International Airport",
			"_Latitude": "7.107",
			"_Longitude": "-73.128"
		},
		{
			"_IATACode": "BGC",
			"_Country": "PT",
			"_State": "",
			"_Name": "Braganca Airport",
			"_Latitude": "41.817",
			"_Longitude": "-6.75"
		},
		{
			"_IATACode": "BGF",
			"_Country": "CF",
			"_State": "",
			"_Name": "Mpoko International Airport",
			"_Latitude": "4.396",
			"_Longitude": "18.52"
		},
		{
			"_IATACode": "BGG",
			"_Country": "TR",
			"_State": "",
			"_Name": "Bingol Airport",
			"_Latitude": "38.884",
			"_Longitude": "40.496"
		},
		{
			"_IATACode": "BGI",
			"_Country": "BB",
			"_State": "",
			"_Name": "Grantley Adams International Airport",
			"_Latitude": "13.072",
			"_Longitude": "-59.493"
		},
		{
			"_IATACode": "BGM",
			"_Country": "US",
			"_State": "NY",
			"_Name": "Greater Binghamton Airport",
			"_Latitude": "42.208",
			"_Longitude": "-75.98"
		},
		{
			"_IATACode": "BGN",
			"_Country": "RU",
			"_State": "",
			"_Name": "Belaya Gora Airport",
			"_Latitude": "68.557",
			"_Longitude": "146.231"
		},
		{
			"_IATACode": "BGO",
			"_Country": "NO",
			"_State": "",
			"_Name": "Flesland Airport",
			"_Latitude": "60.293",
			"_Longitude": "5.218"
		},
		{
			"_IATACode": "BGR",
			"_Country": "US",
			"_State": "ME",
			"_Name": "Bangor International Airport",
			"_Latitude": "44.808",
			"_Longitude": "-68.828"
		},
		{
			"_IATACode": "BGS",
			"_Country": "RU",
			"_State": "",
			"_Name": "Boguchany Airport",
			"_Latitude": "58.379",
			"_Longitude": "97.467"
		},
		{
			"_IATACode": "BGW",
			"_Country": "IQ",
			"_State": "",
			"_Name": "Baghdad International Airport",
			"_Latitude": "33.259",
			"_Longitude": "44.219"
		},
		{
			"_IATACode": "BGX",
			"_Country": "BR",
			"_State": "RS",
			"_Name": "Gustavo Kraemer Airport",
			"_Latitude": "-31.399",
			"_Longitude": "-54.112"
		},
		{
			"_IATACode": "BGY",
			"_Country": "IT",
			"_State": "",
			"_Name": "Bergamo/Orio al Serio Airport",
			"_Latitude": "45.669",
			"_Longitude": "9.7"
		},
		{
			"_IATACode": "BHB",
			"_Country": "US",
			"_State": "ME",
			"_Name": "Hancock County Airport",
			"_Latitude": "44.449",
			"_Longitude": "-68.362"
		},
		{
			"_IATACode": "BHD",
			"_Country": "GB",
			"_State": "",
			"_Name": "George Best City Airport",
			"_Latitude": "54.617",
			"_Longitude": "-5.883"
		},
		{
			"_IATACode": "BHE",
			"_Country": "NZ",
			"_State": "",
			"_Name": "Woodbourne Airport",
			"_Latitude": "-41.517",
			"_Longitude": "173.872"
		},
		{
			"_IATACode": "BHH",
			"_Country": "SA",
			"_State": "",
			"_Name": "Bisha Airport",
			"_Latitude": "19.986",
			"_Longitude": "42.625"
		},
		{
			"_IATACode": "BHI",
			"_Country": "AR",
			"_State": "BA",
			"_Name": "Comandante Espora Airport",
			"_Latitude": "-38.731",
			"_Longitude": "-62.151"
		},
		{
			"_IATACode": "BHJ",
			"_Country": "IN",
			"_State": "GJ",
			"_Name": "Shyamji Krishna Verma Airport",
			"_Latitude": "23.288",
			"_Longitude": "69.671"
		},
		{
			"_IATACode": "BHK",
			"_Country": "UZ",
			"_State": "",
			"_Name": "Bukhara International Airport",
			"_Latitude": "39.767",
			"_Longitude": "64.483"
		},
		{
			"_IATACode": "BHM",
			"_Country": "US",
			"_State": "AL",
			"_Name": "Shuttlesworth International Airport",
			"_Latitude": "33.563",
			"_Longitude": "-86.756"
		},
		{
			"_IATACode": "BHO",
			"_Country": "IN",
			"_State": "MP",
			"_Name": "Raja Bhoj Airport",
			"_Latitude": "23.285",
			"_Longitude": "77.339"
		},
		{
			"_IATACode": "BHQ",
			"_Country": "AU",
			"_State": "NS",
			"_Name": "Broken Hill Airport",
			"_Latitude": "-32.002",
			"_Longitude": "141.467"
		},
		{
			"_IATACode": "BHR",
			"_Country": "NP",
			"_State": "",
			"_Name": "Bharatpur Airport",
			"_Latitude": "27.676",
			"_Longitude": "84.433"
		},
		{
			"_IATACode": "BHU",
			"_Country": "IN",
			"_State": "GJ",
			"_Name": "Bhavnagar Airport",
			"_Latitude": "21.755",
			"_Longitude": "72.184"
		},
		{
			"_IATACode": "BHX",
			"_Country": "GB",
			"_State": "",
			"_Name": "Birmingham Airport",
			"_Latitude": "52.454",
			"_Longitude": "-1.748"
		},
		{
			"_IATACode": "BHY",
			"_Country": "CN",
			"_State": "",
			"_Name": "Fucheng Airport",
			"_Latitude": "21.544",
			"_Longitude": "109.288"
		},
		{
			"_IATACode": "BIA",
			"_Country": "FR",
			"_State": "",
			"_Name": "Poretta Airport",
			"_Latitude": "42.55",
			"_Longitude": "9.485"
		},
		{
			"_IATACode": "BIB",
			"_Country": "SO",
			"_State": "",
			"_Name": "Baidoa Airport",
			"_Latitude": "3.067",
			"_Longitude": "43.633"
		},
		{
			"_IATACode": "BIH",
			"_Country": "US",
			"_State": "CA",
			"_Name": "Eastern Sierra Regional Airport",
			"_Latitude": "37.373",
			"_Longitude": "-118.365"
		},
		{
			"_IATACode": "BIK",
			"_Country": "ID",
			"_State": "",
			"_Name": "Frans Kaisiepo Airport",
			"_Latitude": "-1.19",
			"_Longitude": "136.108"
		},
		{
			"_IATACode": "BIL",
			"_Country": "US",
			"_State": "MT",
			"_Name": "Logan International Airport",
			"_Latitude": "45.807",
			"_Longitude": "-108.543"
		},
		{
			"_IATACode": "BIM",
			"_Country": "BS",
			"_State": "",
			"_Name": "South Bimini Airport",
			"_Latitude": "25.7",
			"_Longitude": "-79.283"
		},
		{
			"_IATACode": "BIO",
			"_Country": "ES",
			"_State": "",
			"_Name": "Bilbao Airport",
			"_Latitude": "43.303",
			"_Longitude": "-2.922"
		},
		{
			"_IATACode": "BIQ",
			"_Country": "FR",
			"_State": "",
			"_Name": "Pays Basque Airport",
			"_Latitude": "43.47",
			"_Longitude": "-1.523"
		},
		{
			"_IATACode": "BIR",
			"_Country": "NP",
			"_State": "",
			"_Name": "Biratnagar Airport",
			"_Latitude": "26.484",
			"_Longitude": "87.266"
		},
		{
			"_IATACode": "BIS",
			"_Country": "US",
			"_State": "ND",
			"_Name": "Bismarck Municipal Airport",
			"_Latitude": "46.774",
			"_Longitude": "-100.758"
		},
		{
			"_IATACode": "BIU",
			"_Country": "IS",
			"_State": "",
			"_Name": "Bildudalur Airport",
			"_Latitude": "65.641",
			"_Longitude": "-23.546"
		},
		{
			"_IATACode": "BJA",
			"_Country": "DZ",
			"_State": "",
			"_Name": "Soummam-Abane Ramdane Airport",
			"_Latitude": "36.75",
			"_Longitude": "5.083"
		},
		{
			"_IATACode": "BJB",
			"_Country": "IR",
			"_State": "",
			"_Name": "Bojnurd Airport",
			"_Latitude": "37.488",
			"_Longitude": "57.306"
		},
		{
			"_IATACode": "BJC",
			"_Country": "US",
			"_State": "CO",
			"_Name": "Rocky Mountain Metropolitan Airport",
			"_Latitude": "39.933",
			"_Longitude": "-105.067"
		},
		{
			"_IATACode": "BJF",
			"_Country": "NO",
			"_State": "",
			"_Name": "Batsfjord Airport",
			"_Latitude": "70.6",
			"_Longitude": "29.667"
		},
		{
			"_IATACode": "BJI",
			"_Country": "US",
			"_State": "MN",
			"_Name": "Bemidji Regional Airport",
			"_Latitude": "47.51",
			"_Longitude": "-94.935"
		},
		{
			"_IATACode": "BJL",
			"_Country": "GM",
			"_State": "",
			"_Name": "Banjul International Airport",
			"_Latitude": "13.35",
			"_Longitude": "-16.667"
		},
		{
			"_IATACode": "BJM",
			"_Country": "BI",
			"_State": "",
			"_Name": "Bujumbura International Airport",
			"_Latitude": "-3.322",
			"_Longitude": "29.32"
		},
		{
			"_IATACode": "BJR",
			"_Country": "ET",
			"_State": "",
			"_Name": "Bahar Dar Airport",
			"_Latitude": "11.606",
			"_Longitude": "37.317"
		},
		{
			"_IATACode": "BJV",
			"_Country": "TR",
			"_State": "",
			"_Name": "Milas Airport",
			"_Latitude": "37.25",
			"_Longitude": "27.683"
		},
		{
			"_IATACode": "BJW",
			"_Country": "ID",
			"_State": "",
			"_Name": "Soa Airport",
			"_Latitude": "-8.707",
			"_Longitude": "121.058"
		},
		{
			"_IATACode": "BJX",
			"_Country": "MX",
			"_State": "",
			"_Name": "Del Bajio International Airport",
			"_Latitude": "20.987",
			"_Longitude": "-101.478"
		},
		{
			"_IATACode": "BJZ",
			"_Country": "ES",
			"_State": "",
			"_Name": "Badajoz Airport",
			"_Latitude": "38.892",
			"_Longitude": "-6.82"
		},
		{
			"_IATACode": "BKA",
			"_Country": "RU",
			"_State": "",
			"_Name": "Baykit Airport",
			"_Latitude": "61.678",
			"_Longitude": "96.354"
		},
		{
			"_IATACode": "BKB",
			"_Country": "IN",
			"_State": "RJ",
			"_Name": "Nal Airport",
			"_Latitude": "28.017",
			"_Longitude": "73.3"
		},
		{
			"_IATACode": "BKC",
			"_Country": "US",
			"_State": "AK",
			"_Name": "Buckland Airport",
			"_Latitude": "65.979",
			"_Longitude": "-161.127"
		},
		{
			"_IATACode": "BKG",
			"_Country": "US",
			"_State": "MO",
			"_Name": "Branson Airport",
			"_Latitude": "36.532",
			"_Longitude": "-93.2"
		},
		{
			"_IATACode": "BKI",
			"_Country": "MY",
			"_State": "",
			"_Name": "Kota Kinabalu International Airport",
			"_Latitude": "5.941",
			"_Longitude": "116.05"
		},
		{
			"_IATACode": "BKK",
			"_Country": "TH",
			"_State": "",
			"_Name": "Suvarnabhumi International",
			"_Latitude": "13.681",
			"_Longitude": "100.747"
		},
		{
			"_IATACode": "BKM",
			"_Country": "MY",
			"_State": "",
			"_Name": "Bakelalan Airport",
			"_Latitude": "3.967",
			"_Longitude": "115.617"
		},
		{
			"_IATACode": "BKO",
			"_Country": "ML",
			"_State": "",
			"_Name": "Senou International Airport",
			"_Latitude": "12.541",
			"_Longitude": "-7.948"
		},
		{
			"_IATACode": "BKQ",
			"_Country": "AU",
			"_State": "QL",
			"_Name": "Blackall Airport",
			"_Latitude": "-24.434",
			"_Longitude": "145.428"
		},
		{
			"_IATACode": "BKS",
			"_Country": "ID",
			"_State": "",
			"_Name": "Fatmawati Soekarno Airport",
			"_Latitude": "-3.862",
			"_Longitude": "102.338"
		},
		{
			"_IATACode": "BKW",
			"_Country": "US",
			"_State": "WV",
			"_Name": "Raleigh County Memorial Airport",
			"_Latitude": "37.782",
			"_Longitude": "-81.124"
		},
		{
			"_IATACode": "BKZ",
			"_Country": "TZ",
			"_State": "",
			"_Name": "Bukoba Airport",
			"_Latitude": "-1.3",
			"_Longitude": "31.8"
		},
		{
			"_IATACode": "BLA",
			"_Country": "VE",
			"_State": "",
			"_Name": "Jose Antonio Anzoategui International A",
			"_Latitude": "10.11",
			"_Longitude": "-64.688"
		},
		{
			"_IATACode": "BLB",
			"_Country": "PA",
			"_State": "",
			"_Name": "Panama Pacifico Airport",
			"_Latitude": "8.973",
			"_Longitude": "-79.558"
		},
		{
			"_IATACode": "BLD",
			"_Country": "US",
			"_State": "NV",
			"_Name": "Boulder City Municipal Airport",
			"_Latitude": "35.983",
			"_Longitude": "-114.833"
		},
		{
			"_IATACode": "BLI",
			"_Country": "US",
			"_State": "WA",
			"_Name": "Bellingham International Airport",
			"_Latitude": "48.794",
			"_Longitude": "-122.535"
		},
		{
			"_IATACode": "BLJ",
			"_Country": "DZ",
			"_State": "",
			"_Name": "Mostepha Ben Boulaid Airport",
			"_Latitude": "35.567",
			"_Longitude": "6.183"
		},
		{
			"_IATACode": "BLL",
			"_Country": "DK",
			"_State": "",
			"_Name": "Billund Airport",
			"_Latitude": "55.738",
			"_Longitude": "9.15"
		},
		{
			"_IATACode": "BLQ",
			"_Country": "IT",
			"_State": "",
			"_Name": "Guglielmo Marconi Airport",
			"_Latitude": "44.531",
			"_Longitude": "11.297"
		},
		{
			"_IATACode": "BLR",
			"_Country": "IN",
			"_State": "KA",
			"_Name": "Kempegowda International Airport",
			"_Latitude": "13.199",
			"_Longitude": "77.706"
		},
		{
			"_IATACode": "BLV",
			"_Country": "US",
			"_State": "IL",
			"_Name": "MidAmerica Saint Louis Airport",
			"_Latitude": "38.543",
			"_Longitude": "-89.851"
		},
		{
			"_IATACode": "BLZ",
			"_Country": "MW",
			"_State": "",
			"_Name": "Chileka International Airport",
			"_Latitude": "-15.675",
			"_Longitude": "34.971"
		},
		{
			"_IATACode": "BMA",
			"_Country": "SE",
			"_State": "",
			"_Name": "Bromma Airport",
			"_Latitude": "59.353",
			"_Longitude": "17.946"
		},
		{
			"_IATACode": "BME",
			"_Country": "AU",
			"_State": "WA",
			"_Name": "Broome International Airport",
			"_Latitude": "-17.95",
			"_Longitude": "122.23"
		},
		{
			"_IATACode": "BMI",
			"_Country": "US",
			"_State": "IL",
			"_Name": "Central Illinois Regional Airport",
			"_Latitude": "40.482",
			"_Longitude": "-88.927"
		},
		{
			"_IATACode": "BMO",
			"_Country": "MM",
			"_State": "",
			"_Name": "Bhamo Airport",
			"_Latitude": "24.274",
			"_Longitude": "97.252"
		},
		{
			"_IATACode": "BMU",
			"_Country": "ID",
			"_State": "",
			"_Name": "Sultan M. Salahuddin Airport",
			"_Latitude": "-8.539",
			"_Longitude": "118.687"
		},
		{
			"_IATACode": "BMV",
			"_Country": "VN",
			"_State": "",
			"_Name": "Buon Ma Thuot Airport",
			"_Latitude": "12.664",
			"_Longitude": "108.118"
		},
		{
			"_IATACode": "BMW",
			"_Country": "DZ",
			"_State": "",
			"_Name": "Bordj Mokhtar Airport",
			"_Latitude": "21.375",
			"_Longitude": "0.924"
		},
		{
			"_IATACode": "BNA",
			"_Country": "US",
			"_State": "TN",
			"_Name": "Nashville International Airport",
			"_Latitude": "36.127",
			"_Longitude": "-86.682"
		},
		{
			"_IATACode": "BNC",
			"_Country": "CD",
			"_State": "",
			"_Name": "Mavivi Airport",
			"_Latitude": "0.575",
			"_Longitude": "29.474"
		},
		{
			"_IATACode": "BND",
			"_Country": "IR",
			"_State": "",
			"_Name": "Bandar Abbas International Airport",
			"_Latitude": "27.217",
			"_Longitude": "56.367"
		},
		{
			"_IATACode": "BNE",
			"_Country": "AU",
			"_State": "QL",
			"_Name": "Brisbane International Airport",
			"_Latitude": "-27.425",
			"_Longitude": "153.086"
		},
		{
			"_IATACode": "BNH",
			"_Country": "US",
			"_State": "MA",
			"_Name": "Boston Harbor Sea Plane Base",
			"_Latitude": "42.352",
			"_Longitude": "-71.026"
		},
		{
			"_IATACode": "BNI",
			"_Country": "NG",
			"_State": "",
			"_Name": "Benin City Airport",
			"_Latitude": "6.324",
			"_Longitude": "5.602"
		},
		{
			"_IATACode": "BNK",
			"_Country": "AU",
			"_State": "NS",
			"_Name": "Byron Gateway Airport",
			"_Latitude": "-28.833",
			"_Longitude": "153.55"
		},
		{
			"_IATACode": "BNN",
			"_Country": "NO",
			"_State": "",
			"_Name": "Bronnoy Airport",
			"_Latitude": "65.46",
			"_Longitude": "12.207"
		},
		{
			"_IATACode": "BNS",
			"_Country": "VE",
			"_State": "",
			"_Name": "Barinas Airport",
			"_Latitude": "8.618",
			"_Longitude": "-70.221"
		},
		{
			"_IATACode": "BNX",
			"_Country": "BA",
			"_State": "",
			"_Name": "Banja Luka International Airport",
			"_Latitude": "44.941",
			"_Longitude": "17.297"
		},
		{
			"_IATACode": "BNY",
			"_Country": "SB",
			"_State": "",
			"_Name": "Anua Airport",
			"_Latitude": "-11.3",
			"_Longitude": "159.817"
		},
		{
			"_IATACode": "BOB",
			"_Country": "PF",
			"_State": "",
			"_Name": "Motu Mute Airport",
			"_Latitude": "-16.444",
			"_Longitude": "-151.752"
		},
		{
			"_IATACode": "BOC",
			"_Country": "PA",
			"_State": "",
			"_Name": "Isla Colon International Airport",
			"_Latitude": "9.34",
			"_Longitude": "-82.252"
		},
		{
			"_IATACode": "BOD",
			"_Country": "FR",
			"_State": "",
			"_Name": "Merignac Airport",
			"_Latitude": "44.829",
			"_Longitude": "-0.714"
		},
		{
			"_IATACode": "BOG",
			"_Country": "CO",
			"_State": "",
			"_Name": "El Dorado International Airport",
			"_Latitude": "4.703",
			"_Longitude": "-74.138"
		},
		{
			"_IATACode": "BOH",
			"_Country": "GB",
			"_State": "",
			"_Name": "Bournemouth International Airport",
			"_Latitude": "50.781",
			"_Longitude": "-1.837"
		},
		{
			"_IATACode": "BOI",
			"_Country": "US",
			"_State": "ID",
			"_Name": "Boise Air Terminal (Gowen Field)",
			"_Latitude": "43.565",
			"_Longitude": "-116.225"
		},
		{
			"_IATACode": "BOJ",
			"_Country": "BG",
			"_State": "",
			"_Name": "Burgas Airport",
			"_Latitude": "42.569",
			"_Longitude": "27.515"
		},
		{
			"_IATACode": "BOM",
			"_Country": "IN",
			"_State": "MH",
			"_Name": "Chhatrapati Shivaji Maharaj Airport",
			"_Latitude": "19.088",
			"_Longitude": "72.852"
		},
		{
			"_IATACode": "BON",
			"_Country": "BQ",
			"_State": "",
			"_Name": "Flamingo International Airport",
			"_Latitude": "12.134",
			"_Longitude": "-68.273"
		},
		{
			"_IATACode": "BOO",
			"_Country": "NO",
			"_State": "",
			"_Name": "Bodo Airport",
			"_Latitude": "67.269",
			"_Longitude": "14.372"
		},
		{
			"_IATACode": "BOS",
			"_Country": "US",
			"_State": "MA",
			"_Name": "Edward L. Logan International Airport",
			"_Latitude": "42.366",
			"_Longitude": "-71.009"
		},
		{
			"_IATACode": "BOY",
			"_Country": "BF",
			"_State": "",
			"_Name": "Bobo Dioulasso Airport",
			"_Latitude": "11.164",
			"_Longitude": "-4.324"
		},
		{
			"_IATACode": "BPA",
			"_Country": "PH",
			"_State": "",
			"_Name": "Borongan Airport",
			"_Latitude": "11.676",
			"_Longitude": "125.478"
		},
		{
			"_IATACode": "BPE",
			"_Country": "CN",
			"_State": "",
			"_Name": "Beidaihe Airport",
			"_Latitude": "39.666",
			"_Longitude": "119.06"
		},
		{
			"_IATACode": "BPG",
			"_Country": "BR",
			"_State": "MT",
			"_Name": "Barra do Garcas Airport",
			"_Latitude": "-15.85",
			"_Longitude": "-52.383"
		},
		{
			"_IATACode": "BPL",
			"_Country": "CN",
			"_State": "",
			"_Name": "Alashankou Airport",
			"_Latitude": "44.906",
			"_Longitude": "82.301"
		},
		{
			"_IATACode": "BPN",
			"_Country": "ID",
			"_State": "",
			"_Name": "Sepinggan Airport",
			"_Latitude": "-1.267",
			"_Longitude": "116.894"
		},
		{
			"_IATACode": "BPR",
			"_Country": "GB",
			"_State": "",
			"_Name": "Parkway Railway Station",
			"_Latitude": "51.514",
			"_Longitude": "-2.542"
		},
		{
			"_IATACode": "BPS",
			"_Country": "BR",
			"_State": "BA",
			"_Name": "Porto Seguro Airport",
			"_Latitude": "-16.439",
			"_Longitude": "-39.081"
		},
		{
			"_IATACode": "BPT",
			"_Country": "US",
			"_State": "TX",
			"_Name": "Jack Brooks Regional Airport",
			"_Latitude": "29.951",
			"_Longitude": "-94.021"
		},
		{
			"_IATACode": "BPX",
			"_Country": "CN",
			"_State": "",
			"_Name": "Bamda/Bangda Airport",
			"_Latitude": "30.556",
			"_Longitude": "97.107"
		},
		{
			"_IATACode": "BQB",
			"_Country": "AU",
			"_State": "WA",
			"_Name": "Busselton Airport",
			"_Latitude": "-33.686",
			"_Longitude": "115.399"
		},
		{
			"_IATACode": "BQC",
			"_Country": "CA",
			"_State": "QC",
			"_Name": "Sainte-Foy Bus Station",
			"_Latitude": "46.773",
			"_Longitude": "-71.301"
		},
		{
			"_IATACode": "BQD",
			"_Country": "IT",
			"_State": "",
			"_Name": "Brindisi Railway Station",
			"_Latitude": "40.634",
			"_Longitude": "17.939"
		},
		{
			"_IATACode": "BQJ",
			"_Country": "RU",
			"_State": "",
			"_Name": "Batagay Airport",
			"_Latitude": "67.648",
			"_Longitude": "134.695"
		},
		{
			"_IATACode": "BQK",
			"_Country": "US",
			"_State": "GA",
			"_Name": "Golden Isles Airport",
			"_Latitude": "31.255",
			"_Longitude": "-81.467"
		},
		{
			"_IATACode": "BQL",
			"_Country": "AU",
			"_State": "QL",
			"_Name": "Boulia Airport",
			"_Latitude": "-22.9",
			"_Longitude": "139.9"
		},
		{
			"_IATACode": "BQN",
			"_Country": "PR",
			"_State": "",
			"_Name": "Rafael Hernandez Airport",
			"_Latitude": "18.496",
			"_Longitude": "-67.13"
		},
		{
			"_IATACode": "BQS",
			"_Country": "RU",
			"_State": "",
			"_Name": "Ignatyevo Airport",
			"_Latitude": "50.426",
			"_Longitude": "127.412"
		},
		{
			"_IATACode": "BQW",
			"_Country": "AU",
			"_State": "WA",
			"_Name": "Balgo Hill Airport",
			"_Latitude": "-20.183",
			"_Longitude": "127.8"
		},
		{
			"_IATACode": "BRA",
			"_Country": "BR",
			"_State": "BA",
			"_Name": "Barreiras Airport",
			"_Latitude": "-12.073",
			"_Longitude": "-45.008"
		},
		{
			"_IATACode": "BRB",
			"_Country": "BR",
			"_State": "MA",
			"_Name": "Barreirinhas Airport",
			"_Latitude": "-2.833",
			"_Longitude": "-42.833"
		},
		{
			"_IATACode": "BRC",
			"_Country": "AR",
			"_State": "RN",
			"_Name": "San Carlos Bariloche Airport",
			"_Latitude": "-41.15",
			"_Longitude": "-71.158"
		},
		{
			"_IATACode": "BRD",
			"_Country": "US",
			"_State": "MN",
			"_Name": "Brainerd Lakes Regional Airport",
			"_Latitude": "46.397",
			"_Longitude": "-94.138"
		},
		{
			"_IATACode": "BRE",
			"_Country": "DE",
			"_State": "",
			"_Name": "Bremen Airport",
			"_Latitude": "53.047",
			"_Longitude": "8.79"
		},
		{
			"_IATACode": "BRI",
			"_Country": "IT",
			"_State": "",
			"_Name": "Palese Airport",
			"_Latitude": "41.138",
			"_Longitude": "16.765"
		},
		{
			"_IATACode": "BRK",
			"_Country": "AU",
			"_State": "NS",
			"_Name": "Bourke Airport",
			"_Latitude": "-30.083",
			"_Longitude": "145.933"
		},
		{
			"_IATACode": "BRL",
			"_Country": "US",
			"_State": "IA",
			"_Name": "Southeast Iowa Regional Airport",
			"_Latitude": "40.786",
			"_Longitude": "-91.123"
		},
		{
			"_IATACode": "BRM",
			"_Country": "VE",
			"_State": "",
			"_Name": "Jacinto Lara International Airport",
			"_Latitude": "10.045",
			"_Longitude": "-69.356"
		},
		{
			"_IATACode": "BRN",
			"_Country": "CH",
			"_State": "",
			"_Name": "Belp Airport",
			"_Latitude": "46.915",
			"_Longitude": "7.499"
		},
		{
			"_IATACode": "BRO",
			"_Country": "US",
			"_State": "TX",
			"_Name": "South Padre Island International Airpor",
			"_Latitude": "25.909",
			"_Longitude": "-97.423"
		},
		{
			"_IATACode": "BRQ",
			"_Country": "CZ",
			"_State": "",
			"_Name": "Turany Airport",
			"_Latitude": "49.151",
			"_Longitude": "16.694"
		},
		{
			"_IATACode": "BRR",
			"_Country": "GB",
			"_State": "",
			"_Name": "Barra Airport",
			"_Latitude": "57.023",
			"_Longitude": "-7.44"
		},
		{
			"_IATACode": "BRS",
			"_Country": "GB",
			"_State": "",
			"_Name": "Bristol Airport",
			"_Latitude": "51.382",
			"_Longitude": "-2.709"
		},
		{
			"_IATACode": "BRU",
			"_Country": "BE",
			"_State": "",
			"_Name": "Brussels Airport",
			"_Latitude": "50.901",
			"_Longitude": "4.484"
		},
		{
			"_IATACode": "BRW",
			"_Country": "US",
			"_State": "AK",
			"_Name": "Wiley Post-Will Rogers Memorial Airport",
			"_Latitude": "71.283",
			"_Longitude": "-156.769"
		},
		{
			"_IATACode": "BRZ",
			"_Country": "IT",
			"_State": "",
			"_Name": "Brescia Railway Station",
			"_Latitude": "45.532",
			"_Longitude": "10.213"
		},
		{
			"_IATACode": "BSA",
			"_Country": "SO",
			"_State": "",
			"_Name": "Bosaso International Airport",
			"_Latitude": "11.283",
			"_Longitude": "49.15"
		},
		{
			"_IATACode": "BSB",
			"_Country": "BR",
			"_State": "DF",
			"_Name": "Juscelino Kubitscheck International Air",
			"_Latitude": "-15.871",
			"_Longitude": "-47.919"
		},
		{
			"_IATACode": "BSC",
			"_Country": "CO",
			"_State": "",
			"_Name": "Jose Celestino Mutis Airport",
			"_Latitude": "6.183",
			"_Longitude": "-77.4"
		},
		{
			"_IATACode": "BSD",
			"_Country": "CN",
			"_State": "",
			"_Name": "Baoshan Airport",
			"_Latitude": "25.054",
			"_Longitude": "99.167"
		},
		{
			"_IATACode": "BSG",
			"_Country": "GQ",
			"_State": "",
			"_Name": "Bata Airport",
			"_Latitude": "1.907",
			"_Longitude": "9.802"
		},
		{
			"_IATACode": "BSH",
			"_Country": "GB",
			"_State": "",
			"_Name": "Brighton Railway Station",
			"_Latitude": "50.817",
			"_Longitude": "-0.117"
		},
		{
			"_IATACode": "BSK",
			"_Country": "DZ",
			"_State": "",
			"_Name": "Mohamed Khider Airport",
			"_Latitude": "34.802",
			"_Longitude": "5.742"
		},
		{
			"_IATACode": "BSL",
			"_Country": "CH",
			"_State": "",
			"_Name": "EuroAirport Swiss",
			"_Latitude": "47.599",
			"_Longitude": "7.531"
		},
		{
			"_IATACode": "BSO",
			"_Country": "PH",
			"_State": "",
			"_Name": "Basco Airport",
			"_Latitude": "20.453",
			"_Longitude": "121.978"
		},
		{
			"_IATACode": "BSR",
			"_Country": "IQ",
			"_State": "",
			"_Name": "Basrah International Airport",
			"_Latitude": "30.549",
			"_Longitude": "47.662"
		},
		{
			"_IATACode": "BTH",
			"_Country": "ID",
			"_State": "",
			"_Name": "Hang Nadim Airport",
			"_Latitude": "1.126",
			"_Longitude": "104.112"
		},
		{
			"_IATACode": "BTI",
			"_Country": "US",
			"_State": "AK",
			"_Name": "Barter Island Airport",
			"_Latitude": "70.135",
			"_Longitude": "-143.578"
		},
		{
			"_IATACode": "BTJ",
			"_Country": "ID",
			"_State": "",
			"_Name": "Sultan Iskandar Muda Airport",
			"_Latitude": "5.52",
			"_Longitude": "95.419"
		},
		{
			"_IATACode": "BTK",
			"_Country": "RU",
			"_State": "",
			"_Name": "Bratsk Airport",
			"_Latitude": "56.371",
			"_Longitude": "101.699"
		},
		{
			"_IATACode": "BTM",
			"_Country": "US",
			"_State": "MT",
			"_Name": "Bert Mooney Airport",
			"_Latitude": "45.955",
			"_Longitude": "-112.498"
		},
		{
			"_IATACode": "BTR",
			"_Country": "US",
			"_State": "LA",
			"_Name": "Baton Rouge Metropolitan Airport-Ryan F",
			"_Latitude": "30.533",
			"_Longitude": "-91.15"
		},
		{
			"_IATACode": "BTS",
			"_Country": "SK",
			"_State": "",
			"_Name": "M.R. Stefanik Airport",
			"_Latitude": "48.17",
			"_Longitude": "17.213"
		},
		{
			"_IATACode": "BTT",
			"_Country": "US",
			"_State": "AK",
			"_Name": "Bettles Airport",
			"_Latitude": "66.915",
			"_Longitude": "-151.526"
		},
		{
			"_IATACode": "BTU",
			"_Country": "MY",
			"_State": "",
			"_Name": "Bintulu Airport",
			"_Latitude": "3.124",
			"_Longitude": "113.024"
		},
		{
			"_IATACode": "BTV",
			"_Country": "US",
			"_State": "VT",
			"_Name": "Burlington International Airport",
			"_Latitude": "44.473",
			"_Longitude": "-73.153"
		},
		{
			"_IATACode": "BTW",
			"_Country": "ID",
			"_State": "",
			"_Name": "Batu Licin Airport",
			"_Latitude": "-3.412",
			"_Longitude": "115.995"
		},
		{
			"_IATACode": "BUA",
			"_Country": "PG",
			"_State": "",
			"_Name": "Buka Airport",
			"_Latitude": "-5.422",
			"_Longitude": "154.673"
		},
		{
			"_IATACode": "BUC",
			"_Country": "AU",
			"_State": "QL",
			"_Name": "Burketown Airport",
			"_Latitude": "-17.75",
			"_Longitude": "139.533"
		},
		{
			"_IATACode": "BUD",
			"_Country": "HU",
			"_State": "",
			"_Name": "Liszt Ferenc International Airport",
			"_Latitude": "47.433",
			"_Longitude": "19.233"
		},
		{
			"_IATACode": "BUF",
			"_Country": "US",
			"_State": "NY",
			"_Name": "Buffalo Niagara International Airport",
			"_Latitude": "42.939",
			"_Longitude": "-78.729"
		},
		{
			"_IATACode": "BUN",
			"_Country": "CO",
			"_State": "",
			"_Name": "Gerardo Tobar Lopez Airport",
			"_Latitude": "3.82",
			"_Longitude": "-76.99"
		},
		{
			"_IATACode": "BUP",
			"_Country": "IN",
			"_State": "PB",
			"_Name": "Bathinda Airport",
			"_Latitude": "30.167",
			"_Longitude": "74.967"
		},
		{
			"_IATACode": "BUQ",
			"_Country": "ZW",
			"_State": "",
			"_Name": "Joshua Mqabuko Nkomo International Airp",
			"_Latitude": "-20.017",
			"_Longitude": "28.618"
		},
		{
			"_IATACode": "BUR",
			"_Country": "US",
			"_State": "CA",
			"_Name": "Bob Hope Airport",
			"_Latitude": "34.2",
			"_Longitude": "-118.358"
		},
		{
			"_IATACode": "BUS",
			"_Country": "GE",
			"_State": "",
			"_Name": "Batumi Airport",
			"_Latitude": "41.611",
			"_Longitude": "41.601"
		},
		{
			"_IATACode": "BUT",
			"_Country": "BT",
			"_State": "",
			"_Name": "Bathpalathang Airport",
			"_Latitude": "27.562",
			"_Longitude": "90.747"
		},
		{
			"_IATACode": "BUU",
			"_Country": "ID",
			"_State": "",
			"_Name": "Muara Bungo Airport",
			"_Latitude": "-1.544",
			"_Longitude": "102.177"
		},
		{
			"_IATACode": "BUW",
			"_Country": "ID",
			"_State": "",
			"_Name": "Betoambari Airport",
			"_Latitude": "-5.484",
			"_Longitude": "122.572"
		},
		{
			"_IATACode": "BUX",
			"_Country": "CD",
			"_State": "",
			"_Name": "Bunia Airport",
			"_Latitude": "1.572",
			"_Longitude": "30.213"
		},
		{
			"_IATACode": "BUZ",
			"_Country": "IR",
			"_State": "",
			"_Name": "Bushehr Airport",
			"_Latitude": "28.949",
			"_Longitude": "50.833"
		},
		{
			"_IATACode": "BVA",
			"_Country": "FR",
			"_State": "",
			"_Name": "Beauvais-Tille Airport",
			"_Latitude": "49.456",
			"_Longitude": "2.112"
		},
		{
			"_IATACode": "BVB",
			"_Country": "BR",
			"_State": "RR",
			"_Name": "Atlas Brasil Cantanhede International A",
			"_Latitude": "2.833",
			"_Longitude": "-60.667"
		},
		{
			"_IATACode": "BVC",
			"_Country": "CV",
			"_State": "",
			"_Name": "Rabil Airport",
			"_Latitude": "16.136",
			"_Longitude": "-22.888"
		},
		{
			"_IATACode": "BVE",
			"_Country": "FR",
			"_State": "",
			"_Name": "Vallee de la Dordogne Airport",
			"_Latitude": "45.148",
			"_Longitude": "1.474"
		},
		{
			"_IATACode": "BVG",
			"_Country": "NO",
			"_State": "",
			"_Name": "Berlevag Airport",
			"_Latitude": "70.867",
			"_Longitude": "29.0"
		},
		{
			"_IATACode": "BVH",
			"_Country": "BR",
			"_State": "RO",
			"_Name": "Brigadeiro Camarao Airport",
			"_Latitude": "-12.717",
			"_Longitude": "-60.117"
		},
		{
			"_IATACode": "BVI",
			"_Country": "AU",
			"_State": "QL",
			"_Name": "Birdsville Airport",
			"_Latitude": "-25.898",
			"_Longitude": "139.343"
		},
		{
			"_IATACode": "BVS",
			"_Country": "BR",
			"_State": "PA",
			"_Name": "Breves Airport",
			"_Latitude": "-1.667",
			"_Longitude": "-50.467"
		},
		{
			"_IATACode": "BWA",
			"_Country": "NP",
			"_State": "",
			"_Name": "Gautam Buddha Airport",
			"_Latitude": "27.504",
			"_Longitude": "83.42"
		},
		{
			"_IATACode": "BWI",
			"_Country": "US",
			"_State": "MD",
			"_Name": "Baltimore/Washington International Airp",
			"_Latitude": "39.176",
			"_Longitude": "-76.671"
		},
		{
			"_IATACode": "BWK",
			"_Country": "HR",
			"_State": "",
			"_Name": "Bol Airport",
			"_Latitude": "43.286",
			"_Longitude": "16.68"
		},
		{
			"_IATACode": "BWN",
			"_Country": "BN",
			"_State": "",
			"_Name": "Brunei International Airport",
			"_Latitude": "4.925",
			"_Longitude": "114.928"
		},
		{
			"_IATACode": "BWT",
			"_Country": "AU",
			"_State": "TS",
			"_Name": "Wynyard Airport",
			"_Latitude": "-40.999",
			"_Longitude": "145.731"
		},
		{
			"_IATACode": "BWX",
			"_Country": "ID",
			"_State": "",
			"_Name": "Blimbingsari Airport",
			"_Latitude": "-8.311",
			"_Longitude": "114.34"
		},
		{
			"_IATACode": "BXG",
			"_Country": "AU",
			"_State": "VI",
			"_Name": "Bendigo Airport",
			"_Latitude": "-36.735",
			"_Longitude": "144.302"
		},
		{
			"_IATACode": "BXR",
			"_Country": "IR",
			"_State": "",
			"_Name": "Bam Airport",
			"_Latitude": "29.117",
			"_Longitude": "58.367"
		},
		{
			"_IATACode": "BXU",
			"_Country": "PH",
			"_State": "",
			"_Name": "Bancasi Airport",
			"_Latitude": "8.951",
			"_Longitude": "125.484"
		},
		{
			"_IATACode": "BYC",
			"_Country": "BO",
			"_State": "",
			"_Name": "Yacuiba Airport",
			"_Latitude": "-21.961",
			"_Longitude": "-63.652"
		},
		{
			"_IATACode": "BYK",
			"_Country": "CI",
			"_State": "",
			"_Name": "Bouake Airport",
			"_Latitude": "7.739",
			"_Longitude": "-5.069"
		},
		{
			"_IATACode": "BYO",
			"_Country": "BR",
			"_State": "MS",
			"_Name": "Bonito Airport",
			"_Latitude": "-21.247",
			"_Longitude": "-56.453"
		},
		{
			"_IATACode": "BZE",
			"_Country": "BZ",
			"_State": "",
			"_Name": "Philip S.W. Goldson International Airpo",
			"_Latitude": "17.536",
			"_Longitude": "-88.31"
		},
		{
			"_IATACode": "BZG",
			"_Country": "PL",
			"_State": "",
			"_Name": "Ignacy Jan Paderewski Airport",
			"_Latitude": "53.097",
			"_Longitude": "17.979"
		},
		{
			"_IATACode": "BZL",
			"_Country": "BD",
			"_State": "",
			"_Name": "Barisal Airport",
			"_Latitude": "22.8",
			"_Longitude": "90.3"
		},
		{
			"_IATACode": "BZN",
			"_Country": "US",
			"_State": "MT",
			"_Name": "Yellowstone International Airport",
			"_Latitude": "45.78",
			"_Longitude": "-111.159"
		},
		{
			"_IATACode": "BZO",
			"_Country": "IT",
			"_State": "",
			"_Name": "Dolomiti Airport",
			"_Latitude": "46.46",
			"_Longitude": "11.326"
		},
		{
			"_IATACode": "BZR",
			"_Country": "FR",
			"_State": "",
			"_Name": "Beziers Vias Airport",
			"_Latitude": "43.324",
			"_Longitude": "3.354"
		},
		{
			"_IATACode": "BZV",
			"_Country": "CG",
			"_State": "",
			"_Name": "Maya-Maya Airport",
			"_Latitude": "-4.252",
			"_Longitude": "15.255"
		},
		{
			"_IATACode": "BZX",
			"_Country": "CN",
			"_State": "",
			"_Name": "Enyang Airport",
			"_Latitude": "31.738",
			"_Longitude": "106.644"
		},
		{
			"_IATACode": "BZZ",
			"_Country": "GB",
			"_State": "",
			"_Name": "Brize Norton Royal Air Force Station",
			"_Latitude": "51.75",
			"_Longitude": "-1.584"
		},
		{
			"_IATACode": "CAB",
			"_Country": "AO",
			"_State": "",
			"_Name": "Cabinda Airport",
			"_Latitude": "-5.583",
			"_Longitude": "12.2"
		},
		{
			"_IATACode": "CAC",
			"_Country": "BR",
			"_State": "PR",
			"_Name": "Adalberto Mendes da Silva Airport",
			"_Latitude": "-25.0",
			"_Longitude": "-53.501"
		},
		{
			"_IATACode": "CAE",
			"_Country": "US",
			"_State": "SC",
			"_Name": "Columbia Metropolitan Airport",
			"_Latitude": "33.939",
			"_Longitude": "-81.119"
		},
		{
			"_IATACode": "CAG",
			"_Country": "IT",
			"_State": "",
			"_Name": "Elmas Airport",
			"_Latitude": "39.247",
			"_Longitude": "9.056"
		},
		{
			"_IATACode": "CAH",
			"_Country": "VN",
			"_State": "",
			"_Name": "Ca Mau Airport",
			"_Latitude": "9.176",
			"_Longitude": "105.179"
		},
		{
			"_IATACode": "CAI",
			"_Country": "EG",
			"_State": "",
			"_Name": "Cairo International Airport",
			"_Latitude": "30.137",
			"_Longitude": "31.407"
		},
		{
			"_IATACode": "CAJ",
			"_Country": "VE",
			"_State": "",
			"_Name": "Canaima Airport",
			"_Latitude": "6.232",
			"_Longitude": "-62.854"
		},
		{
			"_IATACode": "CAK",
			"_Country": "US",
			"_State": "OH",
			"_Name": "Akron/Canton Regional Airport",
			"_Latitude": "40.914",
			"_Longitude": "-81.442"
		},
		{
			"_IATACode": "CAL",
			"_Country": "GB",
			"_State": "",
			"_Name": "Campbeltown Airport",
			"_Latitude": "55.436",
			"_Longitude": "-5.687"
		},
		{
			"_IATACode": "CAN",
			"_Country": "CN",
			"_State": "",
			"_Name": "Baiyun International Airport",
			"_Latitude": "23.392",
			"_Longitude": "113.3"
		},
		{
			"_IATACode": "CAP",
			"_Country": "HT",
			"_State": "",
			"_Name": "Hugo Chavez International Airport",
			"_Latitude": "19.733",
			"_Longitude": "-72.195"
		},
		{
			"_IATACode": "CAQ",
			"_Country": "CO",
			"_State": "",
			"_Name": "Juan H. White Airport",
			"_Latitude": "7.968",
			"_Longitude": "-75.197"
		},
		{
			"_IATACode": "CAT",
			"_Country": "PT",
			"_State": "",
			"_Name": "Tires Airport",
			"_Latitude": "38.726",
			"_Longitude": "-9.355"
		},
		{
			"_IATACode": "CAU",
			"_Country": "BR",
			"_State": "PE",
			"_Name": "Oscar Laranjeiras Airport",
			"_Latitude": "-8.25",
			"_Longitude": "-35.917"
		},
		{
			"_IATACode": "CAW",
			"_Country": "BR",
			"_State": "RJ",
			"_Name": "Bartolomeu Lisandro Airport",
			"_Latitude": "-21.698",
			"_Longitude": "-41.302"
		},
		{
			"_IATACode": "CAY",
			"_Country": "GF",
			"_State": "",
			"_Name": "Felix Eboue Airport",
			"_Latitude": "4.82",
			"_Longitude": "-52.362"
		},
		{
			"_IATACode": "CAZ",
			"_Country": "AU",
			"_State": "NS",
			"_Name": "Cobar Airport",
			"_Latitude": "-31.535",
			"_Longitude": "145.793"
		},
		{
			"_IATACode": "CBB",
			"_Country": "BO",
			"_State": "",
			"_Name": "Jorge Wilstermann International Airport",
			"_Latitude": "-17.428",
			"_Longitude": "-66.172"
		},
		{
			"_IATACode": "CBG",
			"_Country": "GB",
			"_State": "",
			"_Name": "Cambridge Airport",
			"_Latitude": "52.205",
			"_Longitude": "0.175"
		},
		{
			"_IATACode": "CBH",
			"_Country": "DZ",
			"_State": "",
			"_Name": "Boudghene Ben Ali Lofti Airport",
			"_Latitude": "31.648",
			"_Longitude": "-2.26"
		},
		{
			"_IATACode": "CBL",
			"_Country": "VE",
			"_State": "",
			"_Name": "Tomas de Heres Airport",
			"_Latitude": "8.128",
			"_Longitude": "-63.538"
		},
		{
			"_IATACode": "CBO",
			"_Country": "PH",
			"_State": "",
			"_Name": "Awang Airport",
			"_Latitude": "7.163",
			"_Longitude": "124.215"
		},
		{
			"_IATACode": "CBQ",
			"_Country": "NG",
			"_State": "",
			"_Name": "Margaret Ekpo International Airport",
			"_Latitude": "4.964",
			"_Longitude": "8.343"
		},
		{
			"_IATACode": "CBR",
			"_Country": "AU",
			"_State": "AC",
			"_Name": "Canberra Airport",
			"_Latitude": "-35.309",
			"_Longitude": "149.195"
		},
		{
			"_IATACode": "CBT",
			"_Country": "AO",
			"_State": "",
			"_Name": "Catumbela Airport",
			"_Latitude": "-12.483",
			"_Longitude": "13.483"
		},
		{
			"_IATACode": "CCC",
			"_Country": "CU",
			"_State": "",
			"_Name": "Jardines del Rey Airport",
			"_Latitude": "22.509",
			"_Longitude": "-78.407"
		},
		{
			"_IATACode": "CCF",
			"_Country": "FR",
			"_State": "",
			"_Name": "Salvaza Airport",
			"_Latitude": "43.217",
			"_Longitude": "2.317"
		},
		{
			"_IATACode": "CCJ",
			"_Country": "IN",
			"_State": "KL",
			"_Name": "Kozhikode International Airport",
			"_Latitude": "11.137",
			"_Longitude": "75.951"
		},
		{
			"_IATACode": "CCK",
			"_Country": "CC",
			"_State": "",
			"_Name": "Cocos Islands Airport",
			"_Latitude": "-12.188",
			"_Longitude": "96.834"
		},
		{
			"_IATACode": "CCL",
			"_Country": "AU",
			"_State": "QL",
			"_Name": "Chinchilla Airport",
			"_Latitude": "-26.75",
			"_Longitude": "150.633"
		},
		{
			"_IATACode": "CCP",
			"_Country": "CL",
			"_State": "",
			"_Name": "Carriel Sur Airport",
			"_Latitude": "-36.768",
			"_Longitude": "-73.06"
		},
		{
			"_IATACode": "CCR",
			"_Country": "US",
			"_State": "CA",
			"_Name": "Buchanan Field",
			"_Latitude": "37.989",
			"_Longitude": "-122.056"
		},
		{
			"_IATACode": "CCS",
			"_Country": "VE",
			"_State": "",
			"_Name": "Simon Bolivar International Airport",
			"_Latitude": "10.603",
			"_Longitude": "-66.991"
		},
		{
			"_IATACode": "CCU",
			"_Country": "IN",
			"_State": "WB",
			"_Name": "Subhas Chandra Bose Airport",
			"_Latitude": "22.652",
			"_Longitude": "88.449"
		},
		{
			"_IATACode": "CCV",
			"_Country": "VU",
			"_State": "",
			"_Name": "Craig Cove Airport",
			"_Latitude": "-16.2",
			"_Longitude": "167.5"
		},
		{
			"_IATACode": "CDB",
			"_Country": "US",
			"_State": "AK",
			"_Name": "Cold Bay Airport",
			"_Latitude": "55.2",
			"_Longitude": "-162.72"
		},
		{
			"_IATACode": "CDC",
			"_Country": "US",
			"_State": "UT",
			"_Name": "Cedar City Regional Airport",
			"_Latitude": "37.703",
			"_Longitude": "-113.096"
		},
		{
			"_IATACode": "CDE",
			"_Country": "CN",
			"_State": "",
			"_Name": "Puning Airport",
			"_Latitude": "41.121",
			"_Longitude": "118.076"
		},
		{
			"_IATACode": "CDG",
			"_Country": "FR",
			"_State": "",
			"_Name": "Charles de Gaulle Airport",
			"_Latitude": "49.01",
			"_Longitude": "2.549"
		},
		{
			"_IATACode": "CDP",
			"_Country": "IN",
			"_State": "AP",
			"_Name": "Cuddapah Airport",
			"_Latitude": "14.517",
			"_Longitude": "78.783"
		},
		{
			"_IATACode": "CDR",
			"_Country": "US",
			"_State": "NE",
			"_Name": "Chadron Municipal Airport",
			"_Latitude": "42.835",
			"_Longitude": "-103.098"
		},
		{
			"_IATACode": "CDT",
			"_Country": "ES",
			"_State": "",
			"_Name": "Castellon de la Plana Airport",
			"_Latitude": "39.983",
			"_Longitude": "-0.05"
		},
		{
			"_IATACode": "CDV",
			"_Country": "US",
			"_State": "AK",
			"_Name": "Merle K (Mudhole) Smith Airport",
			"_Latitude": "60.492",
			"_Longitude": "-145.477"
		},
		{
			"_IATACode": "CDZ",
			"_Country": "ES",
			"_State": "",
			"_Name": "Cadiz Railway Station",
			"_Latitude": "36.529",
			"_Longitude": "-6.289"
		},
		{
			"_IATACode": "CEB",
			"_Country": "PH",
			"_State": "",
			"_Name": "Mactan International Airport",
			"_Latitude": "10.315",
			"_Longitude": "123.979"
		},
		{
			"_IATACode": "CEC",
			"_Country": "US",
			"_State": "CA",
			"_Name": "Del Norte County Regional Airport",
			"_Latitude": "41.78",
			"_Longitude": "-124.236"
		},
		{
			"_IATACode": "CED",
			"_Country": "AU",
			"_State": "SA",
			"_Name": "Ceduna Airport",
			"_Latitude": "-32.132",
			"_Longitude": "133.706"
		},
		{
			"_IATACode": "CEE",
			"_Country": "RU",
			"_State": "",
			"_Name": "Cherepovets Airport",
			"_Latitude": "59.276",
			"_Longitude": "38.019"
		},
		{
			"_IATACode": "CEI",
			"_Country": "TH",
			"_State": "",
			"_Name": "Mae Fah Luang International Airport",
			"_Latitude": "19.952",
			"_Longitude": "99.883"
		},
		{
			"_IATACode": "CEJ",
			"_Country": "ES",
			"_State": "",
			"_Name": "Cuenca Railway Station",
			"_Latitude": "40.067",
			"_Longitude": "-2.136"
		},
		{
			"_IATACode": "CEK",
			"_Country": "RU",
			"_State": "",
			"_Name": "Balandino Airport",
			"_Latitude": "55.3",
			"_Longitude": "61.5"
		},
		{
			"_IATACode": "CEL",
			"_Country": "BR",
			"_State": "RS",
			"_Name": "Canela",
			"_Latitude": "-29.371",
			"_Longitude": "-50.832"
		},
		{
			"_IATACode": "CEM",
			"_Country": "US",
			"_State": "AK",
			"_Name": "Central Airport",
			"_Latitude": "65.575",
			"_Longitude": "-144.782"
		},
		{
			"_IATACode": "CEN",
			"_Country": "MX",
			"_State": "",
			"_Name": "Ciudad Obregon International Airport",
			"_Latitude": "27.392",
			"_Longitude": "-109.839"
		},
		{
			"_IATACode": "CEZ",
			"_Country": "US",
			"_State": "CO",
			"_Name": "Cortez Municipal Airport",
			"_Latitude": "37.303",
			"_Longitude": "-108.628"
		},
		{
			"_IATACode": "CFB",
			"_Country": "BR",
			"_State": "RJ",
			"_Name": "Cabo Frio International Airport",
			"_Latitude": "-22.922",
			"_Longitude": "-42.074"
		},
		{
			"_IATACode": "CFE",
			"_Country": "FR",
			"_State": "",
			"_Name": "Auvergne Airport",
			"_Latitude": "45.786",
			"_Longitude": "3.167"
		},
		{
			"_IATACode": "CFG",
			"_Country": "CU",
			"_State": "",
			"_Name": "Jaime Gonzalez Airport",
			"_Latitude": "22.15",
			"_Longitude": "-80.414"
		},
		{
			"_IATACode": "CFK",
			"_Country": "DZ",
			"_State": "",
			"_Name": "Aboubakr Belkaid Airport",
			"_Latitude": "36.212",
			"_Longitude": "1.332"
		},
		{
			"_IATACode": "CFN",
			"_Country": "IE",
			"_State": "",
			"_Name": "Donegal Airport",
			"_Latitude": "55.044",
			"_Longitude": "-8.341"
		},
		{
			"_IATACode": "CFR",
			"_Country": "FR",
			"_State": "",
			"_Name": "Carpiquet Airport",
			"_Latitude": "49.173",
			"_Longitude": "-0.448"
		},
		{
			"_IATACode": "CFS",
			"_Country": "AU",
			"_State": "NS",
			"_Name": "Coffs Harbour Airport",
			"_Latitude": "-30.322",
			"_Longitude": "153.121"
		},
		{
			"_IATACode": "CFU",
			"_Country": "GR",
			"_State": "",
			"_Name": "Ioannis Kapodistrias Airport",
			"_Latitude": "39.602",
			"_Longitude": "19.912"
		},
		{
			"_IATACode": "CFW",
			"_Country": "GB",
			"_State": "",
			"_Name": "Cardiff Railway Station",
			"_Latitude": "51.476",
			"_Longitude": "-3.179"
		},
		{
			"_IATACode": "CGB",
			"_Country": "BR",
			"_State": "MT",
			"_Name": "Marechal Rondon International Airport",
			"_Latitude": "-15.65",
			"_Longitude": "-56.117"
		},
		{
			"_IATACode": "CGD",
			"_Country": "CN",
			"_State": "",
			"_Name": "Taohuayuan Airport",
			"_Latitude": "29.067",
			"_Longitude": "111.583"
		},
		{
			"_IATACode": "CGH",
			"_Country": "BR",
			"_State": "SP",
			"_Name": "Congonhas Airport",
			"_Latitude": "-23.625",
			"_Longitude": "-46.66"
		},
		{
			"_IATACode": "CGI",
			"_Country": "US",
			"_State": "MO",
			"_Name": "Cape Girardeau Regional Airport",
			"_Latitude": "37.224",
			"_Longitude": "-89.572"
		},
		{
			"_IATACode": "CGK",
			"_Country": "ID",
			"_State": "",
			"_Name": "Soekarno-Hatta International Airport",
			"_Latitude": "-6.117",
			"_Longitude": "106.65"
		},
		{
			"_IATACode": "CGM",
			"_Country": "PH",
			"_State": "",
			"_Name": "Mambajao Airport",
			"_Latitude": "9.254",
			"_Longitude": "124.707"
		},
		{
			"_IATACode": "CGN",
			"_Country": "DE",
			"_State": "",
			"_Name": "Cologne/Bonn Airport",
			"_Latitude": "50.866",
			"_Longitude": "7.143"
		},
		{
			"_IATACode": "CGO",
			"_Country": "CN",
			"_State": "",
			"_Name": "Xinzheng International Airport",
			"_Latitude": "34.8",
			"_Longitude": "113.65"
		},
		{
			"_IATACode": "CGP",
			"_Country": "BD",
			"_State": "",
			"_Name": "Shah Amanat International Airport",
			"_Latitude": "22.258",
			"_Longitude": "91.826"
		},
		{
			"_IATACode": "CGQ",
			"_Country": "CN",
			"_State": "",
			"_Name": "Longjia International Airport",
			"_Latitude": "43.996",
			"_Longitude": "125.685"
		},
		{
			"_IATACode": "CGR",
			"_Country": "BR",
			"_State": "MS",
			"_Name": "Campo Grande International Airport",
			"_Latitude": "-20.463",
			"_Longitude": "-54.672"
		},
		{
			"_IATACode": "CGY",
			"_Country": "PH",
			"_State": "",
			"_Name": "Laguindingan International Airport",
			"_Latitude": "8.416",
			"_Longitude": "124.611"
		},
		{
			"_IATACode": "CHA",
			"_Country": "US",
			"_State": "TN",
			"_Name": "Chattanooga Metropolitan Airport",
			"_Latitude": "35.036",
			"_Longitude": "-85.204"
		},
		{
			"_IATACode": "CHC",
			"_Country": "NZ",
			"_State": "",
			"_Name": "Christchurch International Airport",
			"_Latitude": "-43.489",
			"_Longitude": "172.534"
		},
		{
			"_IATACode": "CHG",
			"_Country": "CN",
			"_State": "",
			"_Name": "Chaoyang Airport",
			"_Latitude": "41.538",
			"_Longitude": "120.435"
		},
		{
			"_IATACode": "CHH",
			"_Country": "PE",
			"_State": "",
			"_Name": "Chachapoyas Airport",
			"_Latitude": "-6.217",
			"_Longitude": "-77.85"
		},
		{
			"_IATACode": "CHO",
			"_Country": "US",
			"_State": "VA",
			"_Name": "Albemarle Airport",
			"_Latitude": "38.141",
			"_Longitude": "-78.453"
		},
		{
			"_IATACode": "CHQ",
			"_Country": "GR",
			"_State": "",
			"_Name": "Ioannis Daskalogiannis Airport",
			"_Latitude": "35.532",
			"_Longitude": "24.15"
		},
		{
			"_IATACode": "CHR",
			"_Country": "FR",
			"_State": "",
			"_Name": "Deols Airport",
			"_Latitude": "46.817",
			"_Longitude": "1.7"
		},
		{
			"_IATACode": "CHS",
			"_Country": "US",
			"_State": "SC",
			"_Name": "Charleston International Airport/Air Fo",
			"_Latitude": "32.899",
			"_Longitude": "-80.041"
		},
		{
			"_IATACode": "CHT",
			"_Country": "NZ",
			"_State": "",
			"_Name": "Tuuta Airport",
			"_Latitude": "-43.81",
			"_Longitude": "-176.457"
		},
		{
			"_IATACode": "CHW",
			"_Country": "GB",
			"_State": "",
			"_Name": "Royal Well Bus Station",
			"_Latitude": "51.9",
			"_Longitude": "-2.078"
		},
		{
			"_IATACode": "CHX",
			"_Country": "PA",
			"_State": "",
			"_Name": "Manuel Nino International Airport",
			"_Latitude": "9.45",
			"_Longitude": "-82.45"
		},
		{
			"_IATACode": "CHY",
			"_Country": "SB",
			"_State": "",
			"_Name": "Choiseul Bay Airport",
			"_Latitude": "-6.712",
			"_Longitude": "156.396"
		},
		{
			"_IATACode": "CIA",
			"_Country": "IT",
			"_State": "",
			"_Name": "Ciampino Airport",
			"_Latitude": "41.799",
			"_Longitude": "12.597"
		},
		{
			"_IATACode": "CID",
			"_Country": "US",
			"_State": "IA",
			"_Name": "The Eastern Iowa Airport",
			"_Latitude": "41.884",
			"_Longitude": "-91.706"
		},
		{
			"_IATACode": "CIF",
			"_Country": "CN",
			"_State": "",
			"_Name": "Yulong Airport",
			"_Latitude": "42.258",
			"_Longitude": "118.887"
		},
		{
			"_IATACode": "CIH",
			"_Country": "CN",
			"_State": "",
			"_Name": "Wangcun Airport",
			"_Latitude": "36.183",
			"_Longitude": "113.133"
		},
		{
			"_IATACode": "CIJ",
			"_Country": "BO",
			"_State": "",
			"_Name": "Capitan Anibal Arab Airport",
			"_Latitude": "-11.026",
			"_Longitude": "-68.753"
		},
		{
			"_IATACode": "CIK",
			"_Country": "US",
			"_State": "AK",
			"_Name": "Chalkyitsik Airport",
			"_Latitude": "66.648",
			"_Longitude": "-143.729"
		},
		{
			"_IATACode": "CIT",
			"_Country": "KZ",
			"_State": "",
			"_Name": "Shymkent International Airport",
			"_Latitude": "42.366",
			"_Longitude": "69.492"
		},
		{
			"_IATACode": "CIU",
			"_Country": "US",
			"_State": "MI",
			"_Name": "Chippewa County International Airport",
			"_Latitude": "46.258",
			"_Longitude": "-84.474"
		},
		{
			"_IATACode": "CIX",
			"_Country": "PE",
			"_State": "",
			"_Name": "J.A. Quinones Gonzalez Airport",
			"_Latitude": "-6.79",
			"_Longitude": "-79.832"
		},
		{
			"_IATACode": "CIY",
			"_Country": "IT",
			"_State": "",
			"_Name": "Vincenzo Magliocco Airport",
			"_Latitude": "36.992",
			"_Longitude": "14.607"
		},
		{
			"_IATACode": "CIZ",
			"_Country": "BR",
			"_State": "AM",
			"_Name": "Coari Airport",
			"_Latitude": "-4.134",
			"_Longitude": "-63.132"
		},
		{
			"_IATACode": "CJA",
			"_Country": "PE",
			"_State": "",
			"_Name": "Armando R. Iglesias Airport",
			"_Latitude": "-7.133",
			"_Longitude": "-78.5"
		},
		{
			"_IATACode": "CJB",
			"_Country": "IN",
			"_State": "TN",
			"_Name": "Coimbatore International Airport",
			"_Latitude": "11.028",
			"_Longitude": "77.043"
		},
		{
			"_IATACode": "CJC",
			"_Country": "CL",
			"_State": "",
			"_Name": "El Loa Airport",
			"_Latitude": "-22.487",
			"_Longitude": "-68.917"
		},
		{
			"_IATACode": "CJJ",
			"_Country": "KR",
			"_State": "",
			"_Name": "Cheongju International Airport",
			"_Latitude": "36.717",
			"_Longitude": "127.499"
		},
		{
			"_IATACode": "CJM",
			"_Country": "TH",
			"_State": "",
			"_Name": "Chumphon Airport",
			"_Latitude": "10.711",
			"_Longitude": "99.362"
		},
		{
			"_IATACode": "CJS",
			"_Country": "MX",
			"_State": "",
			"_Name": "Abraham Gonzalez International Airport",
			"_Latitude": "31.636",
			"_Longitude": "-106.429"
		},
		{
			"_IATACode": "CJU",
			"_Country": "KR",
			"_State": "",
			"_Name": "Jeju International Airport",
			"_Latitude": "33.506",
			"_Longitude": "126.495"
		},
		{
			"_IATACode": "CJZ",
			"_Country": "BR",
			"_State": "PB",
			"_Name": "Cajazeiras Airport",
			"_Latitude": "-6.881",
			"_Longitude": "-38.618"
		},
		{
			"_IATACode": "CKB",
			"_Country": "US",
			"_State": "WV",
			"_Name": "North Central West Virginia Airport",
			"_Latitude": "39.296",
			"_Longitude": "-80.229"
		},
		{
			"_IATACode": "CKG",
			"_Country": "CN",
			"_State": "",
			"_Name": "Jiangbei International Airport",
			"_Latitude": "29.718",
			"_Longitude": "106.635"
		},
		{
			"_IATACode": "CKH",
			"_Country": "RU",
			"_State": "",
			"_Name": "Chokurdakh Airport",
			"_Latitude": "70.633",
			"_Longitude": "147.883"
		},
		{
			"_IATACode": "CKS",
			"_Country": "BR",
			"_State": "PA",
			"_Name": "Carajas Airport",
			"_Latitude": "-6.117",
			"_Longitude": "-50.001"
		},
		{
			"_IATACode": "CKX",
			"_Country": "US",
			"_State": "AK",
			"_Name": "Chicken Airport",
			"_Latitude": "64.068",
			"_Longitude": "-141.949"
		},
		{
			"_IATACode": "CKY",
			"_Country": "GN",
			"_State": "",
			"_Name": "Conakry International Airport",
			"_Latitude": "9.576",
			"_Longitude": "-13.611"
		},
		{
			"_IATACode": "CKZ",
			"_Country": "TR",
			"_State": "",
			"_Name": "Canakkale Airport",
			"_Latitude": "40.133",
			"_Longitude": "26.4"
		},
		{
			"_IATACode": "CLB",
			"_Country": "GB",
			"_State": "",
			"_Name": "Colchester Bus Station",
			"_Latitude": "51.887",
			"_Longitude": "0.902"
		},
		{
			"_IATACode": "CLD",
			"_Country": "US",
			"_State": "CA",
			"_Name": "McClellan-Palomar Airport",
			"_Latitude": "33.128",
			"_Longitude": "-117.28"
		},
		{
			"_IATACode": "CLE",
			"_Country": "US",
			"_State": "OH",
			"_Name": "Hopkins International Airport",
			"_Latitude": "41.412",
			"_Longitude": "-81.848"
		},
		{
			"_IATACode": "CLJ",
			"_Country": "RO",
			"_State": "",
			"_Name": "Cluj-Napoca Airport",
			"_Latitude": "46.783",
			"_Longitude": "23.683"
		},
		{
			"_IATACode": "CLL",
			"_Country": "US",
			"_State": "TX",
			"_Name": "Easterwood Field",
			"_Latitude": "30.589",
			"_Longitude": "-96.364"
		},
		{
			"_IATACode": "CLO",
			"_Country": "CO",
			"_State": "",
			"_Name": "Alfonso Bonilla Aragon International Ai",
			"_Latitude": "3.543",
			"_Longitude": "-76.382"
		},
		{
			"_IATACode": "CLP",
			"_Country": "US",
			"_State": "AK",
			"_Name": "Clarks Point Airport",
			"_Latitude": "58.843",
			"_Longitude": "-158.543"
		},
		{
			"_IATACode": "CLQ",
			"_Country": "MX",
			"_State": "",
			"_Name": "Miguel de la Madrid Airport",
			"_Latitude": "19.279",
			"_Longitude": "-103.577"
		},
		{
			"_IATACode": "CLT",
			"_Country": "US",
			"_State": "NC",
			"_Name": "Douglas International Airport",
			"_Latitude": "35.219",
			"_Longitude": "-80.936"
		},
		{
			"_IATACode": "CLV",
			"_Country": "BR",
			"_State": "GO",
			"_Name": "Nelson R. Guimaraes Airport",
			"_Latitude": "-17.75",
			"_Longitude": "-48.633"
		},
		{
			"_IATACode": "CLY",
			"_Country": "FR",
			"_State": "",
			"_Name": "Sainte Catherine Airport",
			"_Latitude": "42.528",
			"_Longitude": "8.792"
		},
		{
			"_IATACode": "CMA",
			"_Country": "AU",
			"_State": "QL",
			"_Name": "Cunnamulla Airport",
			"_Latitude": "-28.031",
			"_Longitude": "145.616"
		},
		{
			"_IATACode": "CMB",
			"_Country": "LK",
			"_State": "",
			"_Name": "Bandaranaike International Airport",
			"_Latitude": "7.175",
			"_Longitude": "79.885"
		},
		{
			"_IATACode": "CME",
			"_Country": "MX",
			"_State": "",
			"_Name": "Ciudad del Carmen International Airport",
			"_Latitude": "18.65",
			"_Longitude": "-91.8"
		},
		{
			"_IATACode": "CMF",
			"_Country": "FR",
			"_State": "",
			"_Name": "Chambery/Aix-les-Bains Airport",
			"_Latitude": "45.641",
			"_Longitude": "5.881"
		},
		{
			"_IATACode": "CMG",
			"_Country": "BR",
			"_State": "MS",
			"_Name": "Corumba International Airport",
			"_Latitude": "-19.011",
			"_Longitude": "-57.672"
		},
		{
			"_IATACode": "CMH",
			"_Country": "US",
			"_State": "OH",
			"_Name": "John Glenn International Airport",
			"_Latitude": "39.991",
			"_Longitude": "-82.878"
		},
		{
			"_IATACode": "CMI",
			"_Country": "US",
			"_State": "IL",
			"_Name": "University of Illinois Airport",
			"_Latitude": "40.04",
			"_Longitude": "-88.28"
		},
		{
			"_IATACode": "CMN",
			"_Country": "MA",
			"_State": "",
			"_Name": "Mohammed V Airport",
			"_Latitude": "33.367",
			"_Longitude": "-7.587"
		},
		{
			"_IATACode": "CMW",
			"_Country": "CU",
			"_State": "",
			"_Name": "Ignacio Agramonte International Airport",
			"_Latitude": "21.419",
			"_Longitude": "-77.85"
		},
		{
			"_IATACode": "CMX",
			"_Country": "US",
			"_State": "MI",
			"_Name": "Houghton County Memorial Airport",
			"_Latitude": "47.168",
			"_Longitude": "-88.486"
		},
		{
			"_IATACode": "CNC",
			"_Country": "AU",
			"_State": "QL",
			"_Name": "Coconut Island Airport",
			"_Latitude": "-10.05",
			"_Longitude": "143.067"
		},